Plant_Code,Plant_Name,Utility_Na,Utility_ID,sector_nam,City,County,Zip,Street_Add,PrimSource,Total_MW,Coal_MW,NG_MW,Crude_MW,Bio_MW,Hydro_MW,HydroPS_MW,Nuclear_MW,Solar_MW,Wind_MW,Geo_MW,Other_MW,source_des,tech_desc,Source,Period,Latitude,Longitude
2,Bankhead Dam,Alabama Power Co,195,Electric Utility,Northport,Tuscaloosa,35476,19001 Lock 17 Road,hydroelectric,56,0,0,0,,56,0,0,0,0,,,Hydroelectric = 56 MW,Conventional Hydroelectric,"EIA-860, EIA-860M and EIA-923",201607,33.458665,-87.356823
3,Barry,Alabama Power Co,195,Electric Utility,Bucks,Mobile,36512,North Highway 43,coal,2160.5,1088.5,1072,0,,0,0,0,0,0,,,"Coal = 1088.5 MW, Natural Gas = 1072 MW",Conventional Steam Coal; Natural Gas Fired Combined Cycle; Natural Gas Steam Turbine,"EIA-860, EIA-860M and EIA-923",201607,31.0069,-88.0103
4,Walter Bouldin Dam,Alabama Power Co,195,Electric Utility,Wetumpka,Elmore,36092,750 Bouldin Dam Road,hydroelectric,225.9,0,0,0,,225.9,0,0,0,0,,,Hydroelectric = 225.9 MW,Conventional Hydroelectric,"EIA-860, EIA-860M and EIA-923",201607,32.583889,-86.283056
7,Gadsden,Alabama Power Co,195,Electric Utility,Gadsden,Etowah,35903,1000 Goodyear Ave,natural gas,130,0,130,0,,0,0,0,0,0,,,Natural Gas = 130 MW,Natural Gas Steam Turbine,"EIA-860, EIA-860M and EIA-923",201607,34.0128,-85.9708
8,Gorgas,Alabama Power Co,195,Electric Utility,Parrish,Walker,35580,460 Gorgas Road,coal,1034,1034,0,0,,0,0,0,0,0,,,Coal = 1034 MW,Conventional Steam Coal,"EIA-860, EIA-860M and EIA-923",201607,33.644344,-87.196486
9,Copper,El Paso Electric Co,5701,Electric Utility,El Paso,El Paso,79915,651 Hawkins Blvd.,natural gas,62,0,62,0,,0,0,0,0,0,,,Natural Gas = 62 MW,Natural Gas Fired Combustion Turbine,"EIA-860, EIA-860M and EIA-923",201607,31.7569,-106.375
10,Greene County,Alabama Power Co,195,Electric Utility,Demopolis,Greene,36732,Highway 43,natural gas,1237,497,740,0,,0,0,0,0,0,,,"Coal = 497 MW, Natural Gas = 740 MW",Conventional Steam Coal; Natural Gas Fired Combustion Turbine;,"EIA-860, EIA-860M and EIA-923",201607,32.6017,-87.7811
11,H Neely Henry Dam,Alabama Power Co,195,Electric Utility,Ohatchee,Calhoun,36271,1021 Ala Highway 144,hydroelectric,70,0,0,0,,70,0,0,0,0,,,Hydroelectric = 70 MW,Conventional Hydroelectric,"EIA-860, EIA-860M and EIA-923",201607,33.7845,-86.0524
12,Holt Dam,Alabama Power Co,195,Electric Utility,Tuscaloosa,Tuscaloosa,35476,12117 Power Plant Road,hydroelectric,45,0,0,0,,45,0,0,0,0,,,Hydroelectric = 45 MW,Conventional Hydroelectric,"EIA-860, EIA-860M and EIA-923",201607,33.2553,-87.4495
13,Jordan Dam,Alabama Power Co,195,Electric Utility,Wetumpka,Elmore,36092,6150Jordan Dam Lane,hydroelectric,100,0,0,0,,100,0,0,0,0,,,Hydroelectric = 100 MW,Conventional Hydroelectric,"EIA-860, EIA-860M and EIA-923",201607,32.6189,-86.2548
14,Logan Martin Dam,Alabama Power Co,195,Electric Utility,Vincent,Talladega,35178,299 Logan Martin Road,hydroelectric,135,0,0,0,,135,0,0,0,0,,,Hydroelectric = 135 MW,Conventional Hydroelectric,"EIA-860, EIA-860M and EIA-923",201607,33.425878,-86.337547
15,Lay Dam,Alabama Power Co,195,Electric Utility,Clanton,Chilton,35045,626 County Road 794,hydroelectric,178.8,0,0,0,,178.8,0,0,0,0,,,Hydroelectric = 178.8 MW,Conventional Hydroelectric,"EIA-860, EIA-860M and EIA-923",201607,32.9633,-86.5187
16,Martin Dam,Alabama Power Co,195,Electric Utility,Dadeville,Elmore,36078,675 Overlook Drive,hydroelectric,186,0,0,0,,186,0,0,0,0,,,Hydroelectric = 186 MW,Conventional Hydroelectric,"EIA-860, EIA-860M and EIA-923",201607,32.680394,-85.911442
17,Mitchell Dam,Alabama Power Co,195,Electric Utility,Verbena,Coosa,36091,2235 County Road 93,hydroelectric,165.9,0,0,0,,165.9,0,0,0,0,,,Hydroelectric = 165.9 MW,Conventional Hydroelectric,"EIA-860, EIA-860M and EIA-923",201607,32.806025,-86.444892
18,Lewis Smith Dam,Alabama Power Co,195,Electric Utility,Jasper,Walker,35501,640 Powerhouse Road,hydroelectric,180,0,0,0,,180,0,0,0,0,,,Hydroelectric = 180 MW,Conventional Hydroelectric,"EIA-860, EIA-860M and EIA-923",201607,33.9406,-87.1077
19,Thurlow Dam,Alabama Power Co,195,Electric Utility,Tallassee,Elmore,36078,249 Outer Drive,hydroelectric,78,0,0,0,,78,0,0,0,0,,,Hydroelectric = 78 MW,Conventional Hydroelectric,"EIA-860, EIA-860M and EIA-923",201607,32.535436,-85.887614
20,Weiss Dam,Alabama Power Co,195,Electric Utility,Leesburg,Cherokee,35983,2500 County Road 20,hydroelectric,74.1,0,0,0,,74.1,0,0,0,0,,,Hydroelectric = 74.1 MW,Conventional Hydroelectric,"EIA-860, EIA-860M and EIA-923",201607,34.172142,-85.753806
21,Yates Dam,Alabama Power Co,195,Electric Utility,Tallassee,Elmore,36078,County Road 44,hydroelectric,47,0,0,0,,47,0,0,0,0,,,Hydroelectric = 47 MW,Conventional Hydroelectric,"EIA-860, EIA-860M and EIA-923",201607,32.5743,-85.8901
26,E C Gaston,Alabama Power Co,195,Electric Utility,Wilsonville,Shelby,35186,31972 Highway 25 North,coal,1878,1606,256,16,,0,0,0,0,0,,,"Coal = 1606 MW, Natural Gas = 256 MW, Petroleum = 16 MW",Conventional Steam Coal; Natural Gas Steam Turbine; Petroleum Liquids,"EIA-860, EIA-860M and EIA-923",201607,33.244211,-86.458056
30,Madelia,City of Madelia - (MN),29305,Electric Utility,City of Madelia,WATONWAN,56062,24 Abbot Ave. S.W.,natural gas,10.3,0,10.3,0,,0,0,0,0,0,,,Natural Gas = 10.3 MW,Natural Gas Internal Combustion Engine,"EIA-860, EIA-860M and EIA-923",201607,44.0501,-94.4178
34,Rollins,Nevada Irrigation District,13402,IPP Non-CHP,Colfax,PLACER,95713,15531 Arrow Head Lane,hydroelectric,12.1,0,0,0,,12.1,0,0,0,0,,,Hydroelectric = 12.1 MW,Conventional Hydroelectric,"EIA-860, EIA-860M and EIA-923",201607,39.134259,-120.953341
38,Millers Ferry,USCE-Mobile District,27813,Electric Utility,Camden,Wilcox,36726,1606 Powerhouse Road,hydroelectric,90,0,0,0,,90,0,0,0,0,,,Hydroelectric = 90 MW,Conventional Hydroelectric,"EIA-860, EIA-860M and EIA-923",201607,32.100881,-87.399767
46,Browns Ferry,Tennessee Valley Authority,18642,Electric Utility,Decatur,Limestone,35609,Shaw Rd. PO Box 2000,nuclear,3309.4,0,0,0,,0,0,3309.4,0,0,,,Nuclear = 3309.4 MW,Nuclear,"EIA-860, EIA-860M and EIA-923",201607,34.7042,-87.1189
47,Colbert,Tennessee Valley Authority,18642,Electric Utility,Tuscumbia,Colbert,35674,900 Steam Plant Rd.,coal,835.2,472,363.2,0,,0,0,0,0,0,,,"Coal = 472 MW, Natural Gas = 363.2 MW",Conventional Steam Coal; Natural Gas Fired Combustion Turbine;,"EIA-860, EIA-860M and EIA-923",201607,34.7439,-87.8486
48,Guntersville,Tennessee Valley Authority,18642,Electric Utility,Guntersville,Marshall,35976,3464 Snow Point Rd. PO Box 399,hydroelectric,122.7,0,0,0,,122.7,0,0,0,0,,,Hydroelectric = 122.7 MW,Conventional Hydroelectric,"EIA-860, EIA-860M and EIA-923",201607,34.421272,-86.393931
49,Wheeler Dam,Tennessee Valley Authority,18642,Electric Utility,Town Creek,Lawrence,35672,24455 Alabama Hwy 101,hydroelectric,398.2,0,0,0,,398.2,0,0,0,0,,,Hydroelectric = 398.2 MW,Conventional Hydroelectric,"EIA-860, EIA-860M and EIA-923",201607,34.8069,-87.3819
51,Dolet Hills,Cleco Power LLC,3265,Electric Utility,Mansfield,DeSoto,71052,963 Power Plant Rd,coal,641,641,0,0,,0,0,0,0,0,,,Coal = 641 MW,Conventional Steam Coal,"EIA-860, EIA-860M and EIA-923",201607,32.030556,-93.569167
53,Gantt,PowerSouth Energy Cooperative,189,Electric Utility,Andalusia,Covington,36421,28605 Powerhouse Road,hydroelectric,2.8,0,0,0,,2.8,0,0,0,0,,,Hydroelectric = 2.8 MW,Conventional Hydroelectric,"EIA-860, EIA-860M and EIA-923",201607,31.4033,-86.479469
54,J K Smith,"East Kentucky Power Coop, Inc",5580,Electric Utility,Winchester,Clark,40391,12145 Irvine Road,natural gas,784,0,784,0,,0,0,0,0,0,,,Natural Gas = 784 MW,Natural Gas Fired Combustion Turbine,"EIA-860, EIA-860M and EIA-923",201607,37.8833,-84.1017
55,Point A,PowerSouth Energy Cooperative,189,Electric Utility,Andalusia,Covington,36421,25482 Firetower Lane,hydroelectric,5.4,0,0,0,,5.4,0,0,0,0,,,Hydroelectric = 5.4 MW,Conventional Hydroelectric,"EIA-860, EIA-860M and EIA-923",201607,31.361146,-86.518307
56,Charles R Lowman,PowerSouth Energy Cooperative,189,Electric Utility,Leroy,Washington,36548,Carson Road,coal,556,556,0,0,,0,0,0,0,0,,,Coal = 556 MW,Conventional Steam Coal,"EIA-860, EIA-860M and EIA-923",201607,31.488019,-87.910747
59,Platte,City of Grand Island - (NE),40606,Electric Utility,Grand Island,HALL,68801,1035 W Wildwood Drive,coal,100,100,0,0,,0,0,0,0,0,,,Coal = 100 MW,Conventional Steam Coal,"EIA-860, EIA-860M and EIA-923",201607,40.854765,-98.348222
60,Whelan Energy Center,City of Hastings - (NE),8245,Electric Utility,Hastings,Adams,68902,4520 East South St.,coal,309,309,0,0,,0,0,0,0,0,,,Coal = 309 MW,Conventional Steam Coal,"EIA-860, EIA-860M and EIA-923",201607,40.580872,-98.312437
62,Annex Creek,Alaska Electric Light&Power Co,213,Electric Utility,Juneau,Juneau,99801,Annex Creek,hydroelectric,3.6,0,0,0,,3.6,0,0,0,0,,,Hydroelectric = 3.6 MW,Conventional Hydroelectric,"EIA-860, EIA-860M and EIA-923",201607,58.3176,-134.101
63,Gold Creek,Alaska Electric Light&Power Co,213,Electric Utility,Juneau,Juneau,99801,700 Capital Ave.,petroleum,9.7,0,0,8.1,,1.6,0,0,0,0,,,"Hydroelectric = 1.6 MW, Petroleum = 8.1 MW",Conventional Hydroelectric; Petroleum Liquids;,"EIA-860, EIA-860M and EIA-923",201607,58.3107,-134.4174
64,Lemon Creek,Alaska Electric Light&Power Co,213,Electric Utility,Juneau,Juneau,99801,5601 Tonsgard Ct.,petroleum,57.5,0,0,57.5,,0,0,0,0,0,,,Petroleum = 57.5 MW,Petroleum Liquids,"EIA-860, EIA-860M and EIA-923",201607,58.3536,-134.4953
65,Salmon Creek 1,Alaska Electric Light&Power Co,213,Electric Utility,Juneau,Juneau,99801,2750 Channel Vista Dr.,hydroelectric,5.2,0,0,0,,5.2,0,0,0,0,,,Hydroelectric = 5.2 MW,Conventional Hydroelectric,"EIA-860, EIA-860M and EIA-923",201607,58.3269,-134.4631
66,Skagway,Alaska Power and Telephone Co,219,Electric Utility,Skagway,Skagway Hoonah Angoon,99840,110 Spring St,petroleum,4.4,0,0,3.4,,1,0,0,0,0,,,"Hydroelectric = 1 MW, Petroleum = 3.4 MW",Conventional Hydroelectric; Petroleum Liquids;,"EIA-860, EIA-860M and EIA-923",201607,59.4545,-135.3131
69,Haines,Alaska Power and Telephone Co,219,Electric Utility,Haines,Haines,99927,241 Dalton St.,petroleum,6.2,0,0,6.2,,0,0,0,0,0,,,Petroleum = 6.2 MW,Petroleum Liquids,"EIA-860, EIA-860M and EIA-923",201607,59.235931,-135.446228
70,Swan Lake,Ketchikan Public Utilities,10210,Electric Utility,Ketchikan,Ketchikan Gateway,99901,(no street; very remote),hydroelectric,22.4,0,0,0,,22.4,0,0,0,0,,,Hydroelectric = 22.4 MW,Conventional Hydroelectric,"EIA-860, EIA-860M and EIA-923",201607,55.613892,-131.35417
71,Terror Lake,Kodiak Electric Assn Inc,10433,Electric Utility,Kodiak,Kodiak Island,99615,20 miles southwest of Kodiak,hydroelectric,33.6,0,0,0,,33.6,0,0,0,0,,,Hydroelectric = 33.6 MW,Conventional Hydroelectric,"EIA-860, EIA-860M and EIA-923",201607,57.6861,-152.895
72,Venice Hydro,Metropolitan Water District of S CA,12397,Electric Utility,Culver City,Los Angeles,90230,3815 Sepulveda Blvd,hydroelectric,10.1,0,0,0,,10.1,0,0,0,0,,,Hydroelectric = 10.1 MW,Conventional Hydroelectric,"EIA-860, EIA-860M and EIA-923",201607,34.01135,-118.4168
75,Anchorage 1,Anchorage Municipal Light and Power,599,Electric Utility,Anchorage,Anchorage,99501,821 E. 1st Ave,natural gas,90.4,0,88.4,2,,0,0,0,0,0,,,"Natural Gas = 88.4 MW, Petroleum = 2 MW",Natural Gas Fired Combustion Turbine; Petroleum Liquids;,"EIA-860, EIA-860M and EIA-923",201607,61.2221,-149.8661
77,Eklutna Hydro Project,Anchorage Municipal Light and Power,599,Electric Utility,Palmer,Matanuska Susitna,99645,Mile 4 Old Glenn Hwy.,hydroelectric,44.4,0,0,0,,44.4,0,0,0,0,,,Hydroelectric = 44.4 MW,Conventional Hydroelectric,"EIA-860, EIA-860M and EIA-923",201607,61.475211,-149.15009
78,Snettisham,Alaska Electric Light&Power Co,213,Electric Utility,Juneau,Juneau,99801,Port Snettisham,hydroelectric,78,0,0,0,,78,0,0,0,0,,,Hydroelectric = 78 MW,Conventional Hydroelectric,"EIA-860, EIA-860M and EIA-923",201607,58.1415,-133.737
79,Aurora Energy LLC Chena,Aurora Energy LLC,986,IPP CHP,Fairbanks,Fairbanks North Star,99701,1206 First Ave.,coal,25.7,25.7,0,0,,0,0,0,0,0,,,Coal = 25.7 MW,Conventional Steam Coal,"EIA-860, EIA-860M and EIA-923",201607,64.847743,-147.735063
84,Ketchikan,Ketchikan Public Utilities,10210,Electric Utility,Ketchikan,Ketchikan Gateway,99901,1037 Fair St.,hydroelectric,4.2,0,0,0,,4.2,0,0,0,0,,,Hydroelectric = 4.2 MW,Conventional Hydroelectric,"EIA-860, EIA-860M and EIA-923",201607,55.344641,-131.633425
85,S W Bailey,Ketchikan Public Utilities,10210,Electric Utility,Ketchikan,Ketchikan Gateway,99901,3935 Tongass Ave.,petroleum,23,0,0,23,,0,0,0,0,0,,,Petroleum = 23 MW,Petroleum Liquids,"EIA-860, EIA-860M and EIA-923",201607,55.357397,-131.69696
87,Escalante,"Tri-State G & T Assn, Inc",30151,Electric Utility,Prewitt,McKinley,87045,County Road 19,coal,247,247,0,0,,0,0,0,0,0,,,Coal = 247 MW,Conventional Steam Coal,"EIA-860, EIA-860M and EIA-923",201607,35.4159,-108.082
88,Ashokan,New York Power Authority,15296,Electric Utility,Kingston,Ulster,12401,Route 28A,hydroelectric,4.6,0,0,0,,4.6,0,0,0,0,,,Hydroelectric = 4.6 MW,Conventional Hydroelectric,"EIA-860, EIA-860M and EIA-923",201607,41.949,-74.2063
90,Snake River,Nome Joint Utility Systems,13642,Electric Utility,Nome,Nome,99762,1226 Port Road,petroleum,19,0,0,16.4,,0,0,0,0,2.6,,,"Petroleum = 16.4 MW, Wind = 2.6 MW",Petroleum Liquids; Onshore Wind Turbine;,"EIA-860, EIA-860M and EIA-923",201607,64.505331,-165.429814
91,Petersburg,Petersburg Borough - (AK),14856,Electric Utility,Petersburg,Wrangell Petersburg,99833,11 S. Nordic Drive,petroleum,12.6,0,0,11,,1.6,0,0,0,0,,,"Hydroelectric = 1.6 MW, Petroleum = 11 MW",Conventional Hydroelectric; Petroleum Liquids;,"EIA-860, EIA-860M and EIA-923",201607,56.81104,-132.957091
92,Seward (AK),City of Seward - (AK),16955,Electric Utility,Seward,Kenai Peninsula,99664,605 SeaLion Avenue,petroleum,15.6,0,0,15.6,,0,0,0,0,0,,,Petroleum = 15.6 MW,Petroleum Liquids,"EIA-860, EIA-860M and EIA-923",201607,60.130922,-149.43501
93,Riley#03a,City & Borough of Sitka - (AK),17271,Electric Utility,Sitka,Sitka,99835,SMC,hydroelectric,15.9,0,0,0,,15.9,0,0,0,0,,,Hydroelectric = 15.9 MW,Conventional Hydroelectric,"EIA-860, EIA-860M and EIA-923",201607,57.0516,-135.2297
95,Wrangell,City of Wrangell - (AK),21015,Electric Utility,Wrangell,Wrangell Petersburg,99929,1043 Case Ave,petroleum,8.5,0,0,8.5,,0,0,0,0,0,,,Petroleum = 8.5 MW,Petroleum Liquids,"EIA-860, EIA-860M and EIA-923",201607,56.460976,-132.379439
96,Beluga,Chugach Electric Assn Inc,3522,Electric Utility,Beluga,Kenai Peninsula,99682,Beluga Power Plant,natural gas,300.4,0,300.4,0,,0,0,0,0,0,,,Natural Gas = 300.4 MW,Natural Gas Fired Combustion Turbine,"EIA-860, EIA-860M and EIA-923",201607,61.1861,-151.0356
99,Frederickson,Puget Sound Energy Inc,15500,Electric Utility,Tacoma,Pierce,98446,4714 192nd St East,natural gas,134,0,134,0,,0,0,0,0,0,,,Natural Gas = 134 MW,Natural Gas Fired Combustion Turbine,"EIA-860, EIA-860M and EIA-923",201607,47.079722,-122.365
100,South Consolidated,Salt River Project,16572,Electric Utility,Phoenix,Maricopa,85072,P.O. Box 52025 MS PAB221,hydroelectric,1.4,0,0,0,,1.4,0,0,0,0,,,Hydroelectric = 1.4 MW,Conventional Hydroelectric,"EIA-860, EIA-860M and EIA-923",201607,33.466477,-111.781064
104,J S Eastwood,Southern California Edison Co,17609,Electric Utility,Shaver Lake,Fresno,93664,Hwy 168 Sierra National Forest,pumped storage,199.8,0,0,0,,0,199.8,0,0,0,,,Pumped Storage = 199.8 MW,Hydroelectric Pumped Storage,"EIA-860, EIA-860M and EIA-923",201607,37.147926,-119.2567
108,Holcomb,Sunflower Electric Power Corp,18315,Electric Utility,Holcomb,Finney,67851,2440 Holcomb Lane,coal,358.8,358.8,0,0,,0,0,0,0,0,,,Coal = 358.8 MW,Conventional Steam Coal,"EIA-860, EIA-860M and EIA-923",201607,37.9308,-100.9725
109,Dillingham,"Nushagak Electric Coop, Inc",13870,Electric Utility,Dillingham,Dillingham,99576,557 Kenny Wren Rd.,petroleum,6.6,0,0,6.6,,0,0,0,0,0,,,Petroleum = 6.6 MW,Petroleum Liquids,"EIA-860, EIA-860M and EIA-923",201607,59.6708,-157.89
113,Cholla,Arizona Public Service Co,803,Electric Utility,Joseph City,Navajo,86032,4801 Cholla Lake Road,coal,767,767,0,0,,0,0,0,0,0,,,Coal = 767 MW,Conventional Steam Coal,"EIA-860, EIA-860M and EIA-923",201607,34.9394,-110.3033
114,Douglas,Arizona Public Service Co,803,Electric Utility,Douglas,Cochise,85607,Sulpher Spring Rd/Lawrence Ave,petroleum,15,0,0,15,,0,0,0,0,0,,,Petroleum = 15 MW,Petroleum Liquids,"EIA-860, EIA-860M and EIA-923",201607,31.364122,-109.5538
116,Ocotillo,Arizona Public Service Co,803,Electric Utility,Tempe,Maricopa,85281,1500 East University,natural gas,320.6,0,320,0,,0,0,0,0.6,0,,,"Natural Gas = 320 MW, Solar = 0.6 MW",Natural Gas Fired Combustion Turbine; Natural Gas Steam Turbine; Solar Photovoltaic,"EIA-860, EIA-860M and EIA-923",201607,33.4225,-111.9122
117,West Phoenix,Arizona Public Service Co,803,Electric Utility,Phoenix,Maricopa,85043,4606 West Hadley,natural gas,932,0,932,0,,0,0,0,0,0,,,Natural Gas = 932 MW,Natural Gas Fired Combustion Turbine; Natural Gas Fired Combined Cycle;,"EIA-860, EIA-860M and EIA-923",201607,33.4417,-112.1583
118,Saguaro,Arizona Public Service Co,803,Electric Utility,Red Rock,Pinal,85245,Mail Post 228,natural gas,176,0,176,0,,0,0,0,0,0,,,Natural Gas = 176 MW,Natural Gas Fired Combustion Turbine,"EIA-860, EIA-860M and EIA-923",201607,32.5517,-111.3
120,Yucca,Arizona Public Service Co,803,Electric Utility,Yuma,Yuma,85364,7522 South Somerton Ave.,natural gas,328,0,257,71,,0,0,0,0,0,,,"Natural Gas = 257 MW, Petroleum = 71 MW",Natural Gas Fired Combustion Turbine; Natural Gas Steam Turbine; Petroleum Liquids,"EIA-860, EIA-860M and EIA-923",201607,32.7214,-114.7106
124,Demoss Petrie,Tucson Electric Power Co,24211,Electric Utility,Tucson,Pima,85705,2501 N Flowing Wells Road,natural gas,75,0,75,0,,0,0,0,0,0,,,Natural Gas = 75 MW,Natural Gas Fired Combustion Turbine,"EIA-860, EIA-860M and EIA-923",201607,32.252273,-110.992148
126,H Wilson Sundt Generating Station,Tucson Electric Power Co,24211,Electric Utility,Tucson,Pima,85714,3950 E Irvington Road,natural gas,470,156,314,0,,0,0,0,0,0,,,"Coal = 156 MW, Natural Gas = 314 MW",Conventional Steam Coal; Natural Gas Steam Turbine; Natural Gas Fired Combustion Turbine,"EIA-860, EIA-860M and EIA-923",201607,32.16,-110.9047
127,Oklaunion,Public Service Co of Oklahoma,15474,Electric Utility,Oklaunion,Wilbarger,76373,12567 FM Rd 3430,coal,650,650,0,0,,0,0,0,0,0,,,Coal = 650 MW,Conventional Steam Coal,"EIA-860, EIA-860M and EIA-923",201607,34.0825,-99.1753
130,Cross,South Carolina Public Service Authority,17543,Electric Utility,Cross,Berkeley,29436,553 Cross Station Road,coal,2350,2350,0,0,,0,0,0,0,0,,,Coal = 2350 MW,Conventional Steam Coal,"EIA-860, EIA-860M and EIA-923",201607,33.371506,-80.113235
136,Seminole (FL),Seminole Electric Cooperative Inc,21554,Electric Utility,Palatka,Putnam,32708,State Highway 19,coal,1309,1309,0,0,,0,0,0,0,0,,,Coal = 1309 MW,Conventional Steam Coal,"EIA-860, EIA-860M and EIA-923",201607,29.733056,-81.632778
141,Agua Fria,Salt River Project,16572,Electric Utility,Glendale,Maricopa,85303,7302 W Northern Ave,natural gas,626.2,0,626,0,,0,0,0,0.2,0,,,"Natural Gas = 626 MW, Solar = 0.2 MW",Natural Gas Steam Turbine; Natural Gas Fired Combustion Turbine; Solar Photovoltaic,"EIA-860, EIA-860M and EIA-923",201607,33.5561,-112.2153
143,Crosscut,Salt River Project,16572,Electric Utility,Tempe,Maricopa,85281,998 W. Washington St.,hydroelectric,3,0,0,0,,3,0,0,0,0,,,Hydroelectric = 3 MW,Conventional Hydroelectric,"EIA-860, EIA-860M and EIA-923",201607,33.439375,-111.946052
145,Horse Mesa,Salt River Project,16572,Electric Utility,Phoenix,Maricopa,85072,P.O. Box 52025 MS PAB 221,pumped storage,149,0,0,0,,30,119,0,0,0,,,"Pumped Storage = 119 MW,Hydroelectric = 30 MW",Hydroelectric Pumped Storage; Conventional Hydroelectric;,"EIA-860, EIA-860M and EIA-923",201607,33.5907,-111.344
147,Kyrene,Salt River Project,16572,Electric Utility,Tempe,Maricopa,85283,7005 S Kyrene Rd.,natural gas,525,0,525,0,,0,0,0,0,0,,,Natural Gas = 525 MW,Natural Gas Fired Combustion Turbine; Natural Gas Steam Turbine; Natural Gas Fired Combined Cycle,"EIA-860, EIA-860M and EIA-923",201607,33.3556,-111.9353
148,Mormon Flat,Salt River Project,16572,Electric Utility,Phoenix,Maricopa,85072,P.O. Box 52025 MS PAB 221,pumped storage,68.8,0,0,0,,11.5,57.3,0,0,0,,,"Pumped Storage = 57.3 MW,Hydroelectric = 11.5 MW",Hydroelectric Pumped Storage; Conventional Hydroelectric;,"EIA-860, EIA-860M and EIA-923",201607,33.5536,-111.4431
149,Roosevelt,Salt River Project,16572,Electric Utility,Phoenix,Maricopa,85072,P.O. Box 52025 PAB 221,hydroelectric,36,0,0,0,,36,0,0,0,0,,,Hydroelectric = 36 MW,Conventional Hydroelectric,"EIA-860, EIA-860M and EIA-923",201607,33.671104,-111.161786
150,Stewart Mountain,Salt River Project,16572,Electric Utility,Phoenix,Maricopa,85072,P.O. Box 52025 PAB 221,hydroelectric,13,0,0,0,,13,0,0,0,0,,,Hydroelectric = 13 MW,Conventional Hydroelectric,"EIA-860, EIA-860M and EIA-923",201607,33.5661,-111.536
151,McClure,Modesto Irrigation District,12745,Electric Utility,Modesto,Stanislaus,95354,639 S. McClure Rd.,natural gas,112,0,56,56,,0,0,0,0,0,,,"Natural Gas = 56 MW, Petroleum = 56 MW",Natural Gas Fired Combustion Turbine; Petroleum Liquids;,"EIA-860, EIA-860M and EIA-923",201607,37.62936,-120.93139
152,Davis Dam,U S Bureau of Reclamation,2518,Electric Utility,Kingman,Mohave,86430,N/A,hydroelectric,254.8,0,0,0,,254.8,0,0,0,0,,,Hydroelectric = 254.8 MW,Conventional Hydroelectric,"EIA-860, EIA-860M and EIA-923",201607,35.197044,-114.570669
153,Glen Canyon Dam,U S Bureau of Reclamation,2518,Electric Utility,Page,Coconino,86040,N/A,hydroelectric,1312,0,0,0,,1312,0,0,0,0,,,Hydroelectric = 1312 MW,Conventional Hydroelectric,"EIA-860, EIA-860M and EIA-923",201607,36.936614,-111.483872
154,Hoover Dam (NV),U S Bureau of Reclamation,2518,Electric Utility,Boulder City,Clark,89006,N/A,hydroelectric,1039.4,0,0,0,,1039.4,0,0,0,0,,,Hydroelectric = 1039.4 MW,Conventional Hydroelectric,"EIA-860, EIA-860M and EIA-923",201607,36.01551,-114.738006
159,Lake Creek Dam,Heber Light & Power Company,8366,Electric Utility,Heber City,Wasatch,84032,2400 East Center,hydroelectric,1,0,0,0,,1,0,0,0,0,,,Hydroelectric = 1 MW,Conventional Hydroelectric,"EIA-860, EIA-860M and EIA-923",201607,40.493631,-111.312506
160,Apache Station,Arizona Electric Pwr Coop Inc,796,Electric Utility,Cochise,Cochise,85606,3525 N US Hwy 191,coal,548.5,350,198.5,0,,0,0,0,0,0,,,"Coal = 350 MW, Natural Gas = 198.5 MW",Conventional Steam Coal; Natural Gas Fired Combustion Turbine; Natural Gas Steam Turbine,"EIA-860, EIA-860M and EIA-923",201607,32.0603,-109.8931
161,Turlock Lake,Turlock Irrigation District,19281,Electric Utility,Hickman,Stanislaus,95323,21642 Davis Road,hydroelectric,3.3,0,0,0,,3.3,0,0,0,0,,,Hydroelectric = 3.3 MW,Conventional Hydroelectric,"EIA-860, EIA-860M and EIA-923",201607,37.611461,-120.594678
162,Hickman,Turlock Irrigation District,19281,Electric Utility,Hickman,Stanislaus,95323,779 Main Canal,hydroelectric,1,0,0,0,,1,0,0,0,0,,,Hydroelectric = 1 MW,Conventional Hydroelectric,"EIA-860, EIA-860M and EIA-923",201607,37.621536,-120.746247
165,GREC,Grand River Dam Authority,7490,Electric Utility,Chouteau,Mayes,74337,8142 Hwy 412B,coal,1010,1010,0,0,,0,0,0,0,0,,,Coal = 1010 MW,Conventional Steam Coal,"EIA-860, EIA-860M and EIA-923",201607,36.190278,-95.2894
166,Carpenter,Entergy Arkansas Inc,814,Electric Utility,Hot Springs,Garland,71901,1398 Carpenter Dam Road,hydroelectric,61.8,0,0,0,,61.8,0,0,0,0,,,Hydroelectric = 61.8 MW,Conventional Hydroelectric,"EIA-860, EIA-860M and EIA-923",201607,34.4425,-93.0262
170,Lake Catherine,Entergy Arkansas Inc,814,Electric Utility,Jones Mill,Hot Spring,72105,"Hwy. 270, PO Box 218",natural gas,522.3,0,522.3,0,,0,0,0,0,0,,,Natural Gas = 522.3 MW,Natural Gas Steam Turbine,"EIA-860, EIA-860M and EIA-923",201607,34.4341,-92.9049
171,Mabelvale,Entergy Arkansas Inc,814,Electric Utility,Mabelvale,Pulaski,72103,Vyme Ridge Road,natural gas,28.2,0,28.2,0,,0,0,0,0,0,,,Natural Gas = 28.2 MW,Natural Gas Fired Combustion Turbine,"EIA-860, EIA-860M and EIA-923",201607,34.635997,-92.409602
172,Osceola (AR),City of Osceola - (AR),14216,Electric Utility,Osceola,Mississippi,72370,303 W. Hale,petroleum,4.8,0,0,4.8,,0,0,0,0,0,,,Petroleum = 4.8 MW,Petroleum Liquids,"EIA-860, EIA-860M and EIA-923",201607,35.6893,-89.994
174,Remmel,Entergy Arkansas Inc,814,Electric Utility,Malvern,Hot Spring,72104,"RR 5, Box 342",hydroelectric,11.7,0,0,0,,11.7,0,0,0,0,,,Hydroelectric = 11.7 MW,Conventional Hydroelectric,"EIA-860, EIA-860M and EIA-923",201607,34.4272,-92.8941
180,Volta 2,Pacific Gas & Electric Co,14328,Electric Utility,Manton,Shasta,96059,Manton-Viola Road,hydroelectric,0.9,0,0,0,,0.9,0,0,0,0,,,Hydroelectric = 0.9 MW,Conventional Hydroelectric,"EIA-860, EIA-860M and EIA-923",201607,40.45193,-121.86215
182,Beaver Dam,USCE-Little Rock District,19647,Electric Utility,Eureka Springs,Carroll,72631,774 Dam Site River Raod,hydroelectric,128.8,0,0,0,,128.8,0,0,0,0,,,Hydroelectric = 128.8 MW,Conventional Hydroelectric,"EIA-860, EIA-860M and EIA-923",201607,36.421507,-93.847373
187,Degray,USCE -Vickburg District,19406,Electric Utility,Arkadelphia,Clark,71923,848 Channel Rd,hydroelectric,68,0,0,0,,40,28,0,0,0,,,"Pumped Storage = 28 MW,Hydroelectric = 40 MW",Hydroelectric Pumped Storage; Conventional Hydroelectric;,"EIA-860, EIA-860M and EIA-923",201607,34.211913,-93.110963
188,Greers Ferry Lake,USCE-Little Rock District,19647,Electric Utility,HEBER SPRINGS,Cleburne,72543,P.O. BOX 1088,hydroelectric,90,0,0,0,,90,0,0,0,0,,,Hydroelectric = 90 MW,Conventional Hydroelectric,"EIA-860, EIA-860M and EIA-923",201607,35.5207,-91.9953
193,Municipal Light,City of Piggott - (AR),15043,Electric Utility,Piggott,Clay,72454,Castleberry Street,petroleum,7.2,0,0,7.2,,0,0,0,0,0,,,Petroleum = 7.2 MW,Petroleum Liquids,"EIA-860, EIA-860M and EIA-923",201607,36.3858,-90.1867
195,Narrows (AR),USCE -Vickburg District,19406,Electric Utility,Murfreesboro,Pike,71958,2859 HWY 19 North,hydroelectric,29.1,0,0,0,,29.1,0,0,0,0,,,Hydroelectric = 29.1 MW,Conventional Hydroelectric,"EIA-860, EIA-860M and EIA-923",201607,34.148427,-93.715168
196,Norfork,USCE-Little Rock District,19647,Electric Utility,MOUNTAIN HOME,Baxter,72653,PO BOX 369,hydroelectric,80,0,0,0,,80,0,0,0,0,,,Hydroelectric = 80 MW,Conventional Hydroelectric,"EIA-860, EIA-860M and EIA-923",201607,36.2491,-92.2401
197,Blakely Mountain,USCE -Vickburg District,19406,Electric Utility,Royal,Garland,71968,1111 Blakely Dam Road,hydroelectric,75,0,0,0,,75,0,0,0,0,,,Hydroelectric = 75 MW,Conventional Hydroelectric,"EIA-860, EIA-860M and EIA-923",201607,34.570984,-93.194425
198,Bull Shoals,USCE-Little Rock District,19647,Electric Utility,MOUNTAIN HOME,Marion,72653,324 W 7TH,hydroelectric,370,0,0,0,,370,0,0,0,0,,,Hydroelectric = 370 MW,Conventional Hydroelectric,"EIA-860, EIA-860M and EIA-923",201607,36.3635,-92.5763
199,Dardanelle,USCE-Little Rock District,19647,Electric Utility,RUSSELLVILLE,Pope,72801,PO BOX 1087,hydroelectric,140,0,0,0,,140,0,0,0,0,,,Hydroelectric = 140 MW,Conventional Hydroelectric,"EIA-860, EIA-860M and EIA-923",201607,35.2503,-93.1686
201,Thomas Fitzhugh,Arkansas Electric Coop Corp,807,Electric Utility,Ozark,Franklin,72949,PO Box 78,natural gas,162,0,162,0,,0,0,0,0,0,,,Natural Gas = 162 MW,Natural Gas Fired Combined Cycle,"EIA-860, EIA-860M and EIA-923",201607,35.462382,-93.804926
202,Carl Bailey,Arkansas Electric Coop Corp,807,Electric Utility,Augusta,Woodruff,72006,PO Box 503,natural gas,122,0,122,0,,0,0,0,0,0,,,Natural Gas = 122 MW,Natural Gas Steam Turbine,"EIA-860, EIA-860M and EIA-923",201607,35.260102,-91.363426
203,McClellan (AR),Arkansas Electric Coop Corp,807,Electric Utility,Camden,Ouachita,71701,PO Box 187,natural gas,134,0,134,0,,0,0,0,0,0,,,Natural Gas = 134 MW,Natural Gas Steam Turbine,"EIA-860, EIA-860M and EIA-923",201607,33.5648,-92.7917
204,Clinton Power Station,Exelon Nuclear,55951,IPP Non-CHP,Clinton,DeWitt,61727,Rt. 54 West,nuclear,1065,0,0,0,,0,0,1065,0,0,,,Nuclear = 1065 MW,Nuclear,"EIA-860, EIA-860M and EIA-923",201607,40.1719,-88.8339
207,St Johns River Power Park,JEA,9617,Electric Utility,Jacksonville,Duval,32226,11201 New Berlin Road,coal,1252,1252,0,0,,0,0,0,0,0,,,Coal = 1252 MW,Conventional Steam Coal,"EIA-860, EIA-860M and EIA-923",201607,30.4308,-81.5508
210,Wolf Creek Generating Station,Wolf Creek Nuclear Optg Corp,20893,Electric Utility,Burlington,Coffey,66839,1550 Oxen Lane N.E.,nuclear,1175,0,0,0,,0,0,1175,0,0,,,Nuclear = 1175 MW,Nuclear,"EIA-860, EIA-860M and EIA-923",201607,38.23926,-95.68978
214,Alta Powerhouse,Pacific Gas & Electric Co,14328,Electric Utility,Alta,Placer,95701,NA,hydroelectric,1,0,0,0,,1,0,0,0,0,,,Hydroelectric = 1 MW,Conventional Hydroelectric,"EIA-860, EIA-860M and EIA-923",201607,39.215979,-120.80355
215,Angels,Utica Water & Power Authority,19586,IPP Non-CHP,Angels Camp,Calaveras,95222,1168 Booster Way,hydroelectric,0.7,0,0,0,,0.7,0,0,0,0,,,Hydroelectric = 0.7 MW,Conventional Hydroelectric,"EIA-860, EIA-860M and EIA-923",201607,38.071944,-120.539444
217,Balch 1,Pacific Gas & Electric Co,14328,Electric Utility,Balch Camp,Fresno,93649,Trimmer Springs Road,hydroelectric,34,0,0,0,,34,0,0,0,0,,,Hydroelectric = 34 MW,Conventional Hydroelectric,"EIA-860, EIA-860M and EIA-923",201607,36.909137,-119.087712
218,Balch 2,Pacific Gas & Electric Co,14328,Electric Utility,Balch Camp,Fresno,93649,Trimmer Springs Road,hydroelectric,105,0,0,0,,105,0,0,0,0,,,Hydroelectric = 105 MW,Conventional Hydroelectric,"EIA-860, EIA-860M and EIA-923",201607,36.908907,-119.087556
219,Belden,Pacific Gas & Electric Co,14328,Electric Utility,Belden,Plumas,95915,NA,hydroelectric,125,0,0,0,,125,0,0,0,0,,,Hydroelectric = 125 MW,Conventional Hydroelectric,"EIA-860, EIA-860M and EIA-923",201607,40.007445,-121.249438
220,Bucks Creek,Pacific Gas & Electric Co,14328,Electric Utility,Storrie,Plumas,95980,NA,hydroelectric,65,0,0,0,,65,0,0,0,0,,,Hydroelectric = 65 MW,Conventional Hydroelectric,"EIA-860, EIA-860M and EIA-923",201607,39.91062,-121.327692
221,Butt Valley,Pacific Gas & Electric Co,14328,Electric Utility,Belden,Plumas,95956,Caribou-Pratville Road,hydroelectric,41,0,0,0,,41,0,0,0,0,,,Hydroelectric = 41 MW,Conventional Hydroelectric,"EIA-860, EIA-860M and EIA-923",201607,40.175656,-121.190663
222,Caribou 1,Pacific Gas & Electric Co,14328,Electric Utility,Belden,Plumas,95956,1000 Caribou Road,hydroelectric,75,0,0,0,,75,0,0,0,0,,,Hydroelectric = 75 MW,Conventional Hydroelectric,"EIA-860, EIA-860M and EIA-923",201607,40.085476,-121.148241
223,Caribou 2,Pacific Gas & Electric Co,14328,Electric Utility,Belden,Plumas,95956,1000 Caribou Road,hydroelectric,120,0,0,0,,120,0,0,0,0,,,Hydroelectric = 120 MW,Conventional Hydroelectric,"EIA-860, EIA-860M and EIA-923",201607,40.085997,-121.149373
224,Centerville PH,Pacific Gas & Electric Co,14328,Electric Utility,Chico,Butte,95927,Nimshew Stage Road,hydroelectric,6.4,0,0,0,,6.4,0,0,0,0,,,Hydroelectric = 6.4 MW,Conventional Hydroelectric,"EIA-860, EIA-860M and EIA-923",201607,39.788877,-121.657383
225,Chili Bar,Pacific Gas & Electric Co,14328,Electric Utility,Placerville,El Dorado,95667,Highway 193,hydroelectric,7,0,0,0,,7,0,0,0,0,,,Hydroelectric = 7 MW,Conventional Hydroelectric,"EIA-860, EIA-860M and EIA-923",201607,38.771764,-120.813239
227,Coleman PH,Pacific Gas & Electric Co,14328,Electric Utility,Anderson,Shasta,96022,Coleman Fish Hatchery Road,hydroelectric,13,0,0,0,,13,0,0,0,0,,,Hydroelectric = 13 MW,Conventional Hydroelectric,"EIA-860, EIA-860M and EIA-923",201607,40.404645,-122.121904
229,Cow Creek,Pacific Gas & Electric Co,14328,Electric Utility,Millville,Shasta,96062,South Cow Creek Road,hydroelectric,1.8,0,0,0,,1.8,0,0,0,0,,,Hydroelectric = 1.8 MW,Conventional Hydroelectric,"EIA-860, EIA-860M and EIA-923",201607,40.570817,-122.02093
231,Cresta,Pacific Gas & Electric Co,14328,Electric Utility,Storrie,Butte,95980,NA,hydroelectric,70,0,0,0,,70,0,0,0,0,,,Hydroelectric = 70 MW,Conventional Hydroelectric,"EIA-860, EIA-860M and EIA-923",201607,39.825907,-121.409687
232,De Sabla,Pacific Gas & Electric Co,14328,Electric Utility,Magalia,Butte,95954,De Sabla Powerhouse Road,hydroelectric,18.5,0,0,0,,18.5,0,0,0,0,,,Hydroelectric = 18.5 MW,Conventional Hydroelectric,"EIA-860, EIA-860M and EIA-923",201607,39.869265,-121.631819
233,Deer Creek PH,Pacific Gas & Electric Co,14328,Electric Utility,Nevada City,Nevada,95959,Chalk Bluff Road,hydroelectric,5.7,0,0,0,,5.7,0,0,0,0,,,Hydroelectric = 5.7 MW,Conventional Hydroelectric,"EIA-860, EIA-860M and EIA-923",201607,39.29807,-120.8443
235,Drum 1,Pacific Gas & Electric Co,14328,Electric Utility,Alta,Placer,95701,Drum Powerhouse Road,hydroelectric,54,0,0,0,,54,0,0,0,0,,,Hydroelectric = 54 MW,Conventional Hydroelectric,"EIA-860, EIA-860M and EIA-923",201607,39.256873,-120.767437
236,Drum 2,Pacific Gas & Electric Co,14328,Electric Utility,Alta,Placer,95701,Drum Powerhouse Road,hydroelectric,49.5,0,0,0,,49.5,0,0,0,0,,,Hydroelectric = 49.5 MW,Conventional Hydroelectric,"EIA-860, EIA-860M and EIA-923",201607,39.257388,-120.767046
237,Dutch Flat,Pacific Gas & Electric Co,14328,Electric Utility,Alta,Placer,95701,Dutch Flat Road,hydroelectric,22,0,0,0,,22,0,0,0,0,,,Hydroelectric = 22 MW,Conventional Hydroelectric,"EIA-860, EIA-860M and EIA-923",201607,39.216985,-120.835587
238,El Dorado,El Dorado Irrigation District,25915,Electric Utility,Pollock Pines,EL DORADO,95667,1000 Powerhouse Road,hydroelectric,20.6,0,0,0,,20.6,0,0,0,0,,,Hydroelectric = 20.6 MW,Conventional Hydroelectric,"EIA-860, EIA-860M and EIA-923",201607,38.793574,-120.619152
239,Electra,Pacific Gas & Electric Co,14328,Electric Utility,Jackson,Amador,95642,Electric Road off Highway 49,hydroelectric,98,0,0,0,,98,0,0,0,0,,,Hydroelectric = 98 MW,Conventional Hydroelectric,"EIA-860, EIA-860M and EIA-923",201607,38.330985,-120.669901
240,Haas,Pacific Gas & Electric Co,14328,Electric Utility,Balch Camp,Fresno,93649,Trimmer Springs Road,hydroelectric,144,0,0,0,,144,0,0,0,0,,,Hydroelectric = 144 MW,Conventional Hydroelectric,"EIA-860, EIA-860M and EIA-923",201607,36.927424,-119.02025
241,Halsey,Pacific Gas & Electric Co,14328,Electric Utility,Auburn,Placer,95603,Dry Creek Road,hydroelectric,11,0,0,0,,11,0,0,0,0,,,Hydroelectric = 11 MW,Conventional Hydroelectric,"EIA-860, EIA-860M and EIA-923",201607,38.956985,-121.041932
242,Hamilton Branch,Pacific Gas & Electric Co,14328,Electric Utility,Penninsula Village,Plumas,96137,Lake Almanor,hydroelectric,4.8,0,0,0,,4.8,0,0,0,0,,,Hydroelectric = 4.8 MW,Conventional Hydroelectric,"EIA-860, EIA-860M and EIA-923",201607,40.268712,-121.089479
243,Hat Creek 1,Pacific Gas & Electric Co,14328,Electric Utility,Burney,Shasta,96013,"Baun Lake Road, Star Route 1",hydroelectric,8.5,0,0,0,,8.5,0,0,0,0,,,Hydroelectric = 8.5 MW,Conventional Hydroelectric,"EIA-860, EIA-860M and EIA-923",201607,40.929297,-121.544462
244,Hat Creek 2,Pacific Gas & Electric Co,14328,Electric Utility,Burney,Shasta,96013,Hat Creek #2 Powerhouse Rd.,hydroelectric,8.5,0,0,0,,8.5,0,0,0,0,,,Hydroelectric = 8.5 MW,Conventional Hydroelectric,"EIA-860, EIA-860M and EIA-923",201607,40.960675,-121.548657
246,Humboldt Bay,Pacific Gas & Electric Co,14328,Electric Utility,Eureka,Humboldt,95503,Buhne Pt. 1000 King Salmon Ave,natural gas,163.4,0,163.4,0,,0,0,0,0,0,,,Natural Gas = 163.4 MW,Natural Gas Internal Combustion Engine,"EIA-860, EIA-860M and EIA-923",201607,40.7415,-124.2103
248,Inskip,Pacific Gas & Electric Co,14328,Electric Utility,Manton,Tehama,96059,Manton-Viola Road,hydroelectric,8,0,0,0,,8,0,0,0,0,,,Hydroelectric = 8 MW,Conventional Hydroelectric,"EIA-860, EIA-860M and EIA-923",201607,40.400988,-121.965502
249,James B Black,Pacific Gas & Electric Co,14328,Electric Utility,Big Bend,Shasta,96065,Pitt 5 Road,hydroelectric,172,0,0,0,,172,0,0,0,0,,,Hydroelectric = 172 MW,Conventional Hydroelectric,"EIA-860, EIA-860M and EIA-923",201607,40.992295,-121.975182
250,Kerckhoff,Pacific Gas & Electric Co,14328,Electric Utility,Auberry,Fresno,93602,11,hydroelectric,25.2,0,0,0,,25.2,0,0,0,0,,,Hydroelectric = 25.2 MW,Conventional Hydroelectric,"EIA-860, EIA-860M and EIA-923",201607,37.092486,-119.552826
253,Kilarc,Pacific Gas & Electric Co,14328,Electric Utility,Whitmore,Shasta,96096,Fern Road,hydroelectric,3.2,0,0,0,,3.2,0,0,0,0,,,Hydroelectric = 3.2 MW,Conventional Hydroelectric,"EIA-860, EIA-860M and EIA-923",201607,40.677827,-121.873253
254,Kings River PH,Pacific Gas & Electric Co,14328,Electric Utility,Balch Camp,Fresno,93649,Trimmer Springs Road,hydroelectric,52,0,0,0,,52,0,0,0,0,,,Hydroelectric = 52 MW,Conventional Hydroelectric,"EIA-860, EIA-860M and EIA-923",201607,36.888166,-119.158777
255,Lime Saddle,Pacific Gas & Electric Co,14328,Electric Utility,Oroville,Butte,95965,"Pentz Road, Rural Route1",hydroelectric,2,0,0,0,,2,0,0,0,0,,,Hydroelectric = 2 MW,Conventional Hydroelectric,"EIA-860, EIA-860M and EIA-923",201607,39.698755,-121.57096
258,Merced Falls,Pacific Gas & Electric Co,14328,Electric Utility,Snelling,Merced,95369,Merced Falls Road,hydroelectric,3.5,0,0,0,,3.5,0,0,0,0,,,Hydroelectric = 3.5 MW,Conventional Hydroelectric,"EIA-860, EIA-860M and EIA-923",201607,37.52301,-120.329905
260,Dynegy Moss Landing Power Plant,Dynegy -Moss Landing LLC,54802,IPP Non-CHP,Moss Landing,Monterey,95039,7301 State Highway 1,natural gas,2529,0,2529,0,,0,0,0,0,0,,,Natural Gas = 2529 MW,Natural Gas Fired Combined Cycle; Natural Gas Steam Turbine;,"EIA-860, EIA-860M and EIA-923",201607,36.804837,-121.782241
261,Murphys,Utica Water & Power Authority,19586,IPP Non-CHP,Murphys,Calaveras,95247,Utica Power House Rd off Hwy 4,hydroelectric,1.7,0,0,0,,1.7,0,0,0,0,,,Hydroelectric = 1.7 MW,Conventional Hydroelectric,"EIA-860, EIA-860M and EIA-923",201607,38.147093,-120.446396
262,Narrows PH,Pacific Gas & Electric Co,14328,Electric Utility,Grass Valley,Nevada,95945,Engilebright Dam Road,hydroelectric,12,0,0,0,,12,0,0,0,0,,,Hydroelectric = 12 MW,Conventional Hydroelectric,"EIA-860, EIA-860M and EIA-923",201607,39.2364,-121.271741
264,Phoenix,Pacific Gas & Electric Co,14328,Electric Utility,Sonora,Tuolumne,95370,Shaws Flat Road,hydroelectric,2,0,0,0,,2,0,0,0,0,,,Hydroelectric = 2 MW,Conventional Hydroelectric,"EIA-860, EIA-860M and EIA-923",201607,38.032103,-120.326537
265,Pit 1,Pacific Gas & Electric Co,14328,Electric Utility,Burney,Shasta,96013,"Pit 1 Road, Star Route 1",hydroelectric,61,0,0,0,,61,0,0,0,0,,,Hydroelectric = 61 MW,Conventional Hydroelectric,"EIA-860, EIA-860M and EIA-923",201607,40.99084,-121.498243
266,Pit 3,Pacific Gas & Electric Co,14328,Electric Utility,Burney,Shasta,96013,"Pitt 3 Road, Star Route 1",hydroelectric,69.9,0,0,0,,69.9,0,0,0,0,,,Hydroelectric = 69.9 MW,Conventional Hydroelectric,"EIA-860, EIA-860M and EIA-923",201607,40.997448,-121.748139
267,Pit 4,Pacific Gas & Electric Co,14328,Electric Utility,Big Bend,Shasta,96011,Pit River Road,hydroelectric,95,0,0,0,,95,0,0,0,0,,,Hydroelectric = 95 MW,Conventional Hydroelectric,"EIA-860, EIA-860M and EIA-923",201607,40.986361,-121.84944
268,Pit 5,Pacific Gas & Electric Co,14328,Electric Utility,Big Bend,Shasta,96011,Pit 5 Road,hydroelectric,160,0,0,0,,160,0,0,0,0,,,Hydroelectric = 160 MW,Conventional Hydroelectric,"EIA-860, EIA-860M and EIA-923",201607,40.986197,-121.977594
269,Pit 6,Pacific Gas & Electric Co,14328,Electric Utility,Montgomery Creek,Shasta,96065,Big Bend Road,hydroelectric,80,0,0,0,,80,0,0,0,0,,,Hydroelectric = 80 MW,Conventional Hydroelectric,"EIA-860, EIA-860M and EIA-923",201607,40.922568,-121.992906
270,Pit 7,Pacific Gas & Electric Co,14328,Electric Utility,Montgomery Creek,Shasta,96065,Fender's Ferry Road,hydroelectric,113,0,0,0,,113,0,0,0,0,,,Hydroelectric = 113 MW,Conventional Hydroelectric,"EIA-860, EIA-860M and EIA-923",201607,40.847462,-121.990798
271,Pittsburg Power,NRG Delta LLC,12631,IPP Non-CHP,Pittsburg,Contra Costa,94565,696 W. 10th Street,natural gas,1311,0,1311,0,,0,0,0,0,0,,,Natural Gas = 1311 MW,Natural Gas Steam Turbine,"EIA-860, EIA-860M and EIA-923",201607,38.039168,-121.894469
272,Poe,Pacific Gas & Electric Co,14328,Electric Utility,Storrie,Butte,95980,Poe Road off Highway 70,hydroelectric,120,0,0,0,,120,0,0,0,0,,,Hydroelectric = 120 MW,Conventional Hydroelectric,"EIA-860, EIA-860M and EIA-923",201607,39.722892,-121.469814
274,Potter Valley,Pacific Gas & Electric Co,14328,Electric Utility,Potter Valley,Mendocino,95469,End of Powerhouse Road,hydroelectric,9.2,0,0,0,,9.2,0,0,0,0,,,Hydroelectric = 9.2 MW,Conventional Hydroelectric,"EIA-860, EIA-860M and EIA-923",201607,39.361786,-123.127934
275,Rock Creek,Pacific Gas & Electric Co,14328,Electric Utility,Storrie,Plumas,95980,NA,hydroelectric,126,0,0,0,,126,0,0,0,0,,,Hydroelectric = 126 MW,Conventional Hydroelectric,"EIA-860, EIA-860M and EIA-923",201607,39.90521,-121.345226
276,San Joaquin 2,Pacific Gas & Electric Co,14328,Electric Utility,North Fork,Madera,93643,County Road 222,hydroelectric,3.2,0,0,0,,3.2,0,0,0,0,,,Hydroelectric = 3.2 MW,Conventional Hydroelectric,"EIA-860, EIA-860M and EIA-923",201607,37.203233,-119.497508
277,San Joaquin 3,Pacific Gas & Electric Co,14328,Electric Utility,North Fork,Madera,93643,County Road 222,hydroelectric,4.2,0,0,0,,4.2,0,0,0,0,,,Hydroelectric = 4.2 MW,Conventional Hydroelectric,"EIA-860, EIA-860M and EIA-923",201607,37.253718,-119.519352
279,Salt Springs,Pacific Gas & Electric Co,14328,Electric Utility,Pioneer,Amador,95666,Tiger Creek-Salt Springs Road,hydroelectric,44,0,0,0,,44,0,0,0,0,,,Hydroelectric = 44 MW,Conventional Hydroelectric,"EIA-860, EIA-860M and EIA-923",201607,38.497914,-120.21811
280,South,Pacific Gas & Electric Co,14328,Electric Utility,Manton,Tehama,96059,South Powerhouse Road,hydroelectric,7,0,0,0,,7,0,0,0,0,,,Hydroelectric = 7 MW,Conventional Hydroelectric,"EIA-860, EIA-860M and EIA-923",201607,40.395396,-121.879186
281,Spaulding 1,Pacific Gas & Electric Co,14328,Electric Utility,Emigrant Gap,Nevada,95715,NA,hydroelectric,7,0,0,0,,7,0,0,0,0,,,Hydroelectric = 7 MW,Conventional Hydroelectric,"EIA-860, EIA-860M and EIA-923",201607,39.324613,-120.644807
282,Spaulding 2,Pacific Gas & Electric Co,14328,Electric Utility,Emigrant Gap,Nevada,95715,NA,hydroelectric,4.4,0,0,0,,4.4,0,0,0,0,,,Hydroelectric = 4.4 MW,Conventional Hydroelectric,"EIA-860, EIA-860M and EIA-923",201607,39.324592,-120.645375
283,Spaulding 3,Pacific Gas & Electric Co,14328,Electric Utility,Emigrant Gap,Nevada,95715,NA,hydroelectric,5.8,0,0,0,,5.8,0,0,0,0,,,Hydroelectric = 5.8 MW,Conventional Hydroelectric,"EIA-860, EIA-860M and EIA-923",201607,39.337679,-120.635467
284,Spring Gap,Pacific Gas & Electric Co,14328,Electric Utility,Long Barn,Tuolumne,95335,Frazer Flat Road,hydroelectric,7,0,0,0,,7,0,0,0,0,,,Hydroelectric = 7 MW,Conventional Hydroelectric,"EIA-860, EIA-860M and EIA-923",201607,38.18653,-120.11168
285,Stanislaus,Pacific Gas & Electric Co,14328,Electric Utility,Vallecito,Tuolumne,95251,Camp Nine Road,hydroelectric,91,0,0,0,,91,0,0,0,0,,,Hydroelectric = 91 MW,Conventional Hydroelectric,"EIA-860, EIA-860M and EIA-923",201607,38.139048,-120.370325
286,Geysers Unit 5-20,Geysers Power Co LLC,7160,IPP Non-CHP,Middletown,Sonoma,95461,10350 Socrates Mine Road,geothermal,704,0,0,0,,0,0,0,0,0,704,,Geothermal = 704MW,Geothermal,"EIA-860, EIA-860M and EIA-923",201607,38.777,-122.745
287,Tiger Creek,Pacific Gas & Electric Co,14328,Electric Utility,Pioneer,Amador,95666,Tiger Creek Road,hydroelectric,58,0,0,0,,58,0,0,0,0,,,Hydroelectric = 58 MW,Conventional Hydroelectric,"EIA-860, EIA-860M and EIA-923",201607,38.449291,-120.492645
289,Tule River,Pacific Gas & Electric Co,14328,Electric Utility,Springville,Tulare,93265,Highway 190,hydroelectric,6.4,0,0,0,,6.4,0,0,0,0,,,Hydroelectric = 6.4 MW,Conventional Hydroelectric,"EIA-860, EIA-860M and EIA-923",201607,36.163076,-118.707104
290,Volta 1,Pacific Gas & Electric Co,14328,Electric Utility,Manton,Shasta,96059,Manton-Viola Road,hydroelectric,9,0,0,0,,9,0,0,0,0,,,Hydroelectric = 9 MW,Conventional Hydroelectric,"EIA-860, EIA-860M and EIA-923",201607,40.459111,-121.86708
291,West Point PH,Pacific Gas & Electric Co,14328,Electric Utility,Pioneer,Amador,95666,Red Corral Road,hydroelectric,14.5,0,0,0,,14.5,0,0,0,0,,,Hydroelectric = 14.5 MW,Conventional Hydroelectric,"EIA-860, EIA-860M and EIA-923",201607,38.420898,-120.549572
292,Wise,Pacific Gas & Electric Co,14328,Electric Utility,Auburn,Placer,95603,10850 Wise Road,hydroelectric,17.2,0,0,0,,17.2,0,0,0,0,,,Hydroelectric = 17.2 MW,Conventional Hydroelectric,"EIA-860, EIA-860M and EIA-923",201607,38.889862,-121.098525
293,A G Wishon,Pacific Gas & Electric Co,14328,Electric Utility,North Fork,Madera,93643,County Road 222,hydroelectric,20,0,0,0,,20,0,0,0,0,,,Hydroelectric = 20 MW,Conventional Hydroelectric,"EIA-860, EIA-860M and EIA-923",201607,37.15105,-119.504724
294,Copco 1,PacifiCorp,14354,Electric Utility,Hornbrook,Siskiyou,96044,"Copco Rd, 20 Mi East of I5",hydroelectric,28,0,0,0,,28,0,0,0,0,,,Hydroelectric = 28 MW,Conventional Hydroelectric,"EIA-860, EIA-860M and EIA-923",201607,41.978914,-122.335317
295,Copco 2,PacifiCorp,14354,Electric Utility,Hornbrook,Siskiyou,96044,19305 Daggett Road,hydroelectric,34,0,0,0,,34,0,0,0,0,,,Hydroelectric = 34 MW,Conventional Hydroelectric,"EIA-860, EIA-860M and EIA-923",201607,41.975716,-122.358127
296,Fall Creek,PacifiCorp,14354,Electric Utility,Hornbrook,Siskiyou,96044,"Copco Rd, 18 Mi East of I5",hydroelectric,1.9,0,0,0,,1.9,0,0,0,0,,,Hydroelectric = 1.9 MW,Conventional Hydroelectric,"EIA-860, EIA-860M and EIA-923",201607,41.985605,-122.360455
297,Iron Gate,PacifiCorp,14354,Electric Utility,Hornbrook,Siskiyou,96044,"Copco Rd, 9 Mi East of I5",hydroelectric,18.8,0,0,0,,18.8,0,0,0,0,,,Hydroelectric = 18.8 MW,Conventional Hydroelectric,"EIA-860, EIA-860M and EIA-923",201607,41.932981,-122.43678
298,Limestone,NRG Texas Power LLC,54888,IPP Non-CHP,Jewett,Limestone,75846,"Route1, Box 85",coal,1689,1689,0,0,,0,0,0,0,0,,,Coal = 1689 MW,Conventional Steam Coal,"EIA-860, EIA-860M and EIA-923",201607,31.4219,-96.2525
299,Blundell,PacifiCorp,14354,Electric Utility,Milford,Beaver,84751,10 mi east of Highway 257,geothermal,34,0,0,0,,0,0,0,0,0,34,,Geothermal = 34MW,Geothermal,"EIA-860, EIA-860M and EIA-923",201607,38.4889,-112.8533
301,El Cajon,NRG Cabrillo Power Ops Inc,13960,IPP Non-CHP,El Cajon,San Diego,92020,800 West Main Street,natural gas,16,0,16,0,,0,0,0,0,0,,,Natural Gas = 16 MW,Natural Gas Fired Combustion Turbine,"EIA-860, EIA-860M and EIA-923",201607,32.7958,-116.9722
302,Encina,NRG Cabrillo Power Ops Inc,13960,IPP Non-CHP,Carlsbad,San Diego,92008,4600 Carlsbad Blvd.,natural gas,964,0,964,0,,0,0,0,0,0,,,Natural Gas = 964 MW,Natural Gas Fired Combustion Turbine; Natural Gas Steam Turbine;,"EIA-860, EIA-860M and EIA-923",201607,33.1361,-117.3364
303,Kearny,NRG Cabrillo Power Ops Inc,13960,IPP Non-CHP,San Diego,San Diego,92123,5460 Overland Avenue,natural gas,61,0,61,0,,0,0,0,0,0,,,Natural Gas = 61 MW,Natural Gas Fired Combustion Turbine,"EIA-860, EIA-860M and EIA-923",201607,32.834,-117.1338
305,Miramar,NRG Cabrillo Power Ops Inc,13960,IPP Non-CHP,San Diego,San Diego,92121,6897 Consolidated Way,natural gas,36,0,36,0,,0,0,0,0,0,,,Natural Gas = 36 MW,Natural Gas Fired Combustion Turbine,"EIA-860, EIA-860M and EIA-923",201607,32.8761,-117.1664
313,Green Lake,City & Borough of Sitka - (AK),17271,Electric Utility,Sitka,Sitka,99835,SMC,hydroelectric,18.6,0,0,0,,18.6,0,0,0,0,,,Hydroelectric = 18.6 MW,Conventional Hydroelectric,"EIA-860, EIA-860M and EIA-923",201607,56.986284,-135.12275
314,Drop 5,Imperial Irrigation District,9216,Electric Utility,Calexico,Imperial,92231,Calexico New Port of Entry,hydroelectric,3.8,0,0,0,,3.8,0,0,0,0,,,Hydroelectric = 3.8 MW,Conventional Hydroelectric,"EIA-860, EIA-860M and EIA-923",201607,32.673097,-115.392026
315,AES Alamitos LLC,AES Alamitos LLC,22148,IPP Non-CHP,Long Beach,Los Angeles,90803,la,natural gas,1997,0,1997,0,,0,0,0,0,0,,,Natural Gas = 1997 MW,Natural Gas Steam Turbine,"EIA-860, EIA-860M and EIA-923",201607,33.7688,-118.1009
316,Sepulveda Canyon,Metropolitan Water District of S CA,12397,Electric Utility,Los Angeles,Los Angeles,90049,1751 N. Sepulveda Blvd,hydroelectric,8.5,0,0,0,,8.5,0,0,0,0,,,Hydroelectric = 8.5 MW,Conventional Hydroelectric,"EIA-860, EIA-860M and EIA-923",201607,34.0969,-118.4795
317,Big Creek 1,Southern California Edison Co,17609,Electric Utility,Big Creek,Fresno,93605,55325 Cascada Road,hydroelectric,88.4,0,0,0,,88.4,0,0,0,0,,,Hydroelectric = 88.4 MW,Conventional Hydroelectric,"EIA-860, EIA-860M and EIA-923",201607,37.2042,-119.2396
318,Big Creek 2,Southern California Edison Co,17609,Electric Utility,Auberry,Fresno,93605,53615 Upper Chawanakee Road,hydroelectric,66.6,0,0,0,,66.6,0,0,0,0,,,Hydroelectric = 66.6 MW,Conventional Hydroelectric,"EIA-860, EIA-860M and EIA-923",201607,37.2,-119.3069
319,Big Creek 3,Southern California Edison Co,17609,Electric Utility,Auberry,Fresno,93602,47369 Lower Redinger Road,hydroelectric,173.5,0,0,0,,173.5,0,0,0,0,,,Hydroelectric = 173.5 MW,Conventional Hydroelectric,"EIA-860, EIA-860M and EIA-923",201607,37.148517,-119.386623
320,Big Creek 4,Southern California Edison Co,17609,Electric Utility,North Fork,Madera,93643,Sierra National Forest,hydroelectric,100,0,0,0,,100,0,0,0,0,,,Hydroelectric = 100 MW,Conventional Hydroelectric,"EIA-860, EIA-860M and EIA-923",201607,37.139,-119.4898
321,Big Creek 8,Southern California Edison Co,17609,Electric Utility,Auberry,Fresno,93605,51374 Mammoth Pool Road,hydroelectric,70.8,0,0,0,,70.8,0,0,0,0,,,Hydroelectric = 70.8 MW,Conventional Hydroelectric,"EIA-860, EIA-860M and EIA-923",201607,37.2096,-119.3289
322,Big Creek 2A,Southern California Edison Co,17609,Electric Utility,Auberry,Fresno,93605,Sierra National Forest,hydroelectric,100,0,0,0,,100,0,0,0,0,,,Hydroelectric = 100 MW,Conventional Hydroelectric,"EIA-860, EIA-860M and EIA-923",201607,37.200062,-119.30681
323,Bishop Creek 2,Southern California Edison Co,17609,Electric Utility,Bishop,Inyo,93514,Hwy 168 Inyo National Forest,hydroelectric,7.3,0,0,0,,7.3,0,0,0,0,,,Hydroelectric = 7.3 MW,Conventional Hydroelectric,"EIA-860, EIA-860M and EIA-923",201607,37.273581,-118.573339
324,Bishop Creek 3,Southern California Edison Co,17609,Electric Utility,Bishop,Inyo,93514,Hwy168 Inyo National Forest,hydroelectric,8.4,0,0,0,,8.4,0,0,0,0,,,Hydroelectric = 8.4 MW,Conventional Hydroelectric,"EIA-860, EIA-860M and EIA-923",201607,37.301962,-118.531957
325,Bishop Creek 4,Southern California Edison Co,17609,Electric Utility,Bishop,Inyo,93514,Route 1 Plant 4,hydroelectric,8.2,0,0,0,,8.2,0,0,0,0,,,Hydroelectric = 8.2 MW,Conventional Hydroelectric,"EIA-860, EIA-860M and EIA-923",201607,37.323035,-118.501714
326,Bishop Creek 5,Southern California Edison Co,17609,Electric Utility,Bishop,Inyo,93514,Inyo National Forest,hydroelectric,3.8,0,0,0,,3.8,0,0,0,0,,,Hydroelectric = 3.8 MW,Conventional Hydroelectric,"EIA-860, EIA-860M and EIA-923",201607,37.3344,-118.4797
327,Bishop Creek 6,Southern California Edison Co,17609,Electric Utility,Bishop,Inyo,93514,Plant 6 Rd Inyo Nat'l Forest,hydroelectric,1.6,0,0,0,,1.6,0,0,0,0,,,Hydroelectric = 1.6 MW,Conventional Hydroelectric,"EIA-860, EIA-860M and EIA-923",201607,37.3499,-118.4628
328,Borel,Southern California Edison Co,17609,Electric Utility,Lake Isabella,Kern,93240,Hwy178 Sequoia Nat'l Forest,hydroelectric,10.6,0,0,0,,10.6,0,0,0,0,,,Hydroelectric = 10.6 MW,Conventional Hydroelectric,"EIA-860, EIA-860M and EIA-923",201607,35.588069,-118.524804
331,Etiwanda Generating Station,NRG California South LP,15908,IPP Non-CHP,Rancho Cucamonga,San Bernardino,91739,8996 Etiwanda Road,natural gas,640,0,640,0,,0,0,0,0,0,,,Natural Gas = 640 MW,Natural Gas Steam Turbine,"EIA-860, EIA-860M and EIA-923",201607,34.09118,-117.52663
332,Fontana,Southern California Edison Co,17609,Electric Utility,Rialto,San Bernardino,92336,3165 N. Riverside,hydroelectric,3,0,0,0,,3,0,0,0,0,,,Hydroelectric = 3 MW,Conventional Hydroelectric,"EIA-860, EIA-860M and EIA-923",201607,34.155162,-117.397119
335,AES Huntington Beach LLC,AES Huntington Beach LLC,23693,IPP Non-CHP,Huntington Beach,Orange,92646,21730 Newland Street,natural gas,451.6,0,451.6,0,,0,0,0,0,0,,,Natural Gas = 451.6 MW,Natural Gas Steam Turbine,"EIA-860, EIA-860M and EIA-923",201607,33.6439,-117.9792
336,Kaweah 2,Southern California Edison Co,17609,Electric Utility,Three Rivers,Tulare,93271,Kaweah River Drive,hydroelectric,1.8,0,0,0,,1.8,0,0,0,0,,,Hydroelectric = 1.8 MW,Conventional Hydroelectric,"EIA-860, EIA-860M and EIA-923",201607,36.461326,-118.87988
337,Kaweah 1,Southern California Edison Co,17609,Electric Utility,Three Rivers,Tulare,93271,44511 Sierra Drive,hydroelectric,2.3,0,0,0,,2.3,0,0,0,0,,,Hydroelectric = 2.3 MW,Conventional Hydroelectric,"EIA-860, EIA-860M and EIA-923",201607,36.465066,-118.862023
338,Kaweah 3,Southern California Edison Co,17609,Electric Utility,Three Rivers,Tulare,93271,Kaweah River Drive,hydroelectric,4.5,0,0,0,,4.5,0,0,0,0,,,Hydroelectric = 4.5 MW,Conventional Hydroelectric,"EIA-860, EIA-860M and EIA-923",201607,36.486059,-118.835645
339,Kern River 3,Southern California Edison Co,17609,Electric Utility,Kernville,Kern,93238,15115 Sierra Way,hydroelectric,40.2,0,0,0,,40.2,0,0,0,0,,,Hydroelectric = 40.2 MW,Conventional Hydroelectric,"EIA-860, EIA-860M and EIA-923",201607,35.776185,-118.436233
340,Kern River 1,Southern California Edison Co,17609,Electric Utility,Bakersfield,KERN,93301,Hwy178 Sequoia Nat'l Forest,hydroelectric,26.4,0,0,0,,26.4,0,0,0,0,,,Hydroelectric = 26.4 MW,Conventional Hydroelectric,"EIA-860, EIA-860M and EIA-923",201607,35.460303,-118.77959
341,Long Beach Generation LLC,NRG El Segundo Operations Inc,13584,IPP Non-CHP,Long Beach,Los Angeles,90802,"2665 Pier ""S"" Lane",natural gas,260,0,260,0,,0,0,0,0,0,,,Natural Gas = 260 MW,Natural Gas Fired Combustion Turbine,"EIA-860, EIA-860M and EIA-923",201607,33.7641,-118.2248
342,Lundy,Southern California Edison Co,17609,Electric Utility,Lee Vining,Mono,93541,9 miles N. of Lee Vining,hydroelectric,3,0,0,0,,3,0,0,0,0,,,Hydroelectric = 3 MW,Conventional Hydroelectric,"EIA-860, EIA-860M and EIA-923",201607,38.042729,-119.172015
344,Mammoth Pool,Southern California Edison Co,17609,Electric Utility,North  Fork,Madera,93643,Sierra National Forest,hydroelectric,160,0,0,0,,160,0,0,0,0,,,Hydroelectric = 160 MW,Conventional Hydroelectric,"EIA-860, EIA-860M and EIA-923",201607,37.220302,-119.337983
345,Mandalay,NRG California South LP,15908,IPP Non-CHP,Oxnard,Ventura,93035,393 N. Harbor Blvd,natural gas,560,0,560,0,,0,0,0,0,0,,,Natural Gas = 560 MW,Natural Gas Fired Combustion Turbine; Natural Gas Steam Turbine;,"EIA-860, EIA-860M and EIA-923",201607,34.2067,-119.2511
350,Ormond Beach,NRG California South LP,15908,IPP Non-CHP,Oxnard,Ventura,93033,6635 S. Edison Drive,natural gas,1516,0,1516,0,,0,0,0,0,0,,,Natural Gas = 1516 MW,Natural Gas Steam Turbine,"EIA-860, EIA-860M and EIA-923",201607,34.1292,-119.1689
353,Poole,Southern California Edison Co,17609,Electric Utility,Lee Vining,Mono,93541,Inyo National Forest,hydroelectric,11.3,0,0,0,,11.3,0,0,0,0,,,Hydroelectric = 11.3 MW,Conventional Hydroelectric,"EIA-860, EIA-860M and EIA-923",201607,37.944237,-119.2161
354,Portal,Southern California Edison Co,17609,Electric Utility,Lakeshore,Fresno,93634,Hwy168 Sierra Nat'l Forest,hydroelectric,10.8,0,0,0,,10.8,0,0,0,0,,,Hydroelectric = 10.8 MW,Conventional Hydroelectric,"EIA-860, EIA-860M and EIA-923",201607,37.257045,-119.158936
356,AES Redondo Beach LLC,AES Redondo Beach LLC,22484,IPP Non-CHP,Redondo Beach,Los Angeles,90277,1100 N. Harbor Drive,natural gas,1310,0,1310,0,,0,0,0,0,0,,,Natural Gas = 1310 MW,Natural Gas Steam Turbine,"EIA-860, EIA-860M and EIA-923",201607,33.8504,-118.395
357,Rush Creek,Southern California Edison Co,17609,Electric Utility,June lake,Mono,93529,June Lake Loop Sierra Ntnl For,hydroelectric,11.4,0,0,0,,11.4,0,0,0,0,,,Hydroelectric = 11.4 MW,Conventional Hydroelectric,"EIA-860, EIA-860M and EIA-923",201607,37.766954,-119.123284
358,Mountainview Generating Station,Southern California Edison Co,17609,Electric Utility,Redlands,San Bernardino,92374,2492 West San Bernardino Ave.,natural gas,972,0,972,0,,0,0,0,0,0,,,Natural Gas = 972 MW,Natural Gas Fired Combined Cycle,"EIA-860, EIA-860M and EIA-923",201607,34.0818,-117.2418
361,Santa Ana 1,Southern California Edison Co,17609,Electric Utility,Highlands,San Bernardino,92346,San Barnardino National Forest,hydroelectric,3.2,0,0,0,,3.2,0,0,0,0,,,Hydroelectric = 3.2 MW,Conventional Hydroelectric,"EIA-860, EIA-860M and EIA-923",201607,34.14522,-117.058481
363,Santa Ana 3,Southern California Edison Co,17609,Electric Utility,Highlands,San Bernardino,92346,San Bernardino National Forest,hydroelectric,3.1,0,0,0,,3.1,0,0,0,0,,,Hydroelectric = 3.1 MW,Conventional Hydroelectric,"EIA-860, EIA-860M and EIA-923",201607,34.107245,-117.099091
365,Lower Tule River,Southern California Edison Co,17609,Electric Utility,Springdale,Tulare,93265,Hwy190 Sequoia National Forest,hydroelectric,2.6,0,0,0,,2.6,0,0,0,0,,,Hydroelectric = 2.6 MW,Conventional Hydroelectric,"EIA-860, EIA-860M and EIA-923",201607,36.13568,-118.788868
371,Columbia Generating Station,Energy Northwest,20160,Electric Utility,Richland,Benton,99352,PO Box 968,nuclear,1158,0,0,0,,0,0,1158,0,0,,,Nuclear = 1158 MW,Nuclear,"EIA-860, EIA-860M and EIA-923",201607,46.4711,-119.3339
376,Pardee,East Bay Municipal Util Dist,5571,Electric Utility,Valley Spings,Calaveras,95252,Pardee Dam Road at Mokelumne R,hydroelectric,27.7,0,0,0,,27.7,0,0,0,0,,,Hydroelectric = 27.7 MW,Conventional Hydroelectric,"EIA-860, EIA-860M and EIA-923",201607,38.2569,-120.8507
377,Grayson,City of Glendale - (CA),7294,Electric Utility,Glendale,Los Angeles,91201,800 Air Way,natural gas,256,0,198,0,58,0,0,0,0,0,,,"Biomass = 58 MW, Natural Gas = 198 MW",Landfill Gas; Natural Gas Fired Combined Cycle; Natural Gas Fired Combustion Turbine; Natural Gas Steam Turbine;,"EIA-860, EIA-860M and EIA-923",201607,34.1556,-118.2782
378,Prairie River,"ALLETE, Inc.",12647,Electric Utility,Grand Rapids,Itasca,55744,County Rd 61,hydroelectric,0.6,0,0,0,,0.6,0,0,0,0,,,Hydroelectric = 0.6 MW,Conventional Hydroelectric,"EIA-860, EIA-860M and EIA-923",201607,47.287206,-93.498266
380,Dion R Holm,City & County of San Francisco,16612,Electric Utility,Groveland,Tuolumne,95321,Cherry Lake Road,hydroelectric,156.8,0,0,0,,156.8,0,0,0,0,,,Hydroelectric = 156.8 MW,Conventional Hydroelectric,"EIA-860, EIA-860M and EIA-923",201607,37.896649,-119.9675
381,Moccasin,City & County of San Francisco,16612,Electric Utility,Moccasin,Tuolumne,95347,Hwy 120-49 junction,hydroelectric,100,0,0,0,,100,0,0,0,0,,,Hydroelectric = 100 MW,Conventional Hydroelectric,"EIA-860, EIA-860M and EIA-923",201607,37.809388,-120.299254
382,R C Kirkwood,City & County of San Francisco,16612,Electric Utility,Groveland,Tuolumne,95321,Cherry Lake Road,hydroelectric,115.5,0,0,0,,115.5,0,0,0,0,,,Hydroelectric = 115.5 MW,Conventional Hydroelectric,"EIA-860, EIA-860M and EIA-923",201607,37.877667,-119.953233
384,Joliet 29,Midwest Generations EME LLC,12384,IPP Non-CHP,Joliet,Will,60436,1800 Channahon Rd,coal,1036,1036,0,0,,0,0,0,0,0,,,Coal = 1036 MW,Conventional Steam Coal,"EIA-860, EIA-860M and EIA-923",201607,41.494636,-88.123827
385,Drop 2 (CA),Imperial Irrigation District,9216,Electric Utility,Holtville,Imperial,92250,Interstate 8,hydroelectric,9.8,0,0,0,,9.8,0,0,0,0,,,Hydroelectric = 9.8 MW,Conventional Hydroelectric,"EIA-860, EIA-860M and EIA-923",201607,32.705435,-115.030975
386,Drop 3 (CA),Imperial Irrigation District,9216,Electric Utility,Holtville,Imperial,92250,Interstate 8,hydroelectric,7.3,0,0,0,,7.3,0,0,0,0,,,Hydroelectric = 7.3 MW,Conventional Hydroelectric,"EIA-860, EIA-860M and EIA-923",201607,32.705428,-115.126103
387,Drop 4,Imperial Irrigation District,9216,Electric Utility,Holtville,Imperial,92250,3675 E. Highway 98,hydroelectric,19.1,0,0,0,,19.1,0,0,0,0,,,Hydroelectric = 19.1 MW,Conventional Hydroelectric,"EIA-860, EIA-860M and EIA-923",201607,32.705341,-115.219067
389,El Centro,Imperial Irrigation District,9216,Electric Utility,El Centro,Imperial,92243,485 E. Villa Avenue,natural gas,314,0,314,0,,0,0,0,0,0,,,Natural Gas = 314 MW,Natural Gas Fired Combined Cycle; Natural Gas Steam Turbine;,"EIA-860, EIA-860M and EIA-923",201607,32.802222,-115.54
390,Solomon Gulch,"Copper Valley Elec Assn, Inc",4329,Electric Utility,Valdez,Valdez Cordova,99686,1455 Dayville road,hydroelectric,12,0,0,0,,12,0,0,0,0,,,Hydroelectric = 12 MW,Conventional Hydroelectric,"EIA-860, EIA-860M and EIA-923",201607,61.0828,-146.3033
391,Big Pine Creek,Los Angeles Department of Water & Power,11208,Electric Utility,Big Pine,Inyo,93513,400 Cone Rd.,hydroelectric,3,0,0,0,,3,0,0,0,0,,,Hydroelectric = 3 MW,Conventional Hydroelectric,"EIA-860, EIA-860M and EIA-923",201607,37.142795,-118.324075
392,Castaic,Los Angeles Department of Water & Power,11208,Electric Utility,Castaic,Los Angeles,91384,37700 Templin Hwy,pumped storage,1631,0,0,0,,56,1575,0,0,0,,,"Pumped Storage = 1575 MW,Hydroelectric = 56 MW",Hydroelectric Pumped Storage; Conventional Hydroelectric;,"EIA-860, EIA-860M and EIA-923",201607,34.587237,-118.656638
393,Control Gorge,Los Angeles Department of Water & Power,11208,Electric Utility,Bishop,Inyo,93514,1501 Gorge Rd.,hydroelectric,37.5,0,0,0,,37.5,0,0,0,0,,,Hydroelectric = 37.5 MW,Conventional Hydroelectric,"EIA-860, EIA-860M and EIA-923",201607,37.437921,-118.556988
394,Cottonwood,Los Angeles Department of Water & Power,11208,Electric Utility,Lone Pine,Inyo,93545,651 Power House Rd.,hydroelectric,2.4,0,0,0,,2.4,0,0,0,0,,,Hydroelectric = 2.4 MW,Conventional Hydroelectric,"EIA-860, EIA-860M and EIA-923",201607,36.443421,-118.04389
396,Foothill,Los Angeles Department of Water & Power,11208,Electric Utility,San Fernando,Los Angeles,91342,14351 San Fernando Rd.,hydroelectric,9.9,0,0,0,,9.9,0,0,0,0,,,Hydroelectric = 9.9 MW,Conventional Hydroelectric,"EIA-860, EIA-860M and EIA-923",201607,34.318248,-118.494449
397,Franklin (CA),Los Angeles Department of Water & Power,11208,Electric Utility,Beverley Hills,Los Angeles,90210,1298 N. Beverley Dr.,hydroelectric,2,0,0,0,,2,0,0,0,0,,,Hydroelectric = 2 MW,Conventional Hydroelectric,"EIA-860, EIA-860M and EIA-923",201607,34.103931,-118.413377
398,Haiwee,Los Angeles Department of Water & Power,11208,Electric Utility,Olancha,Inyo,93549,3401 S. Haiwee Rd.,hydroelectric,7.2,0,0,0,,7.2,0,0,0,0,,,Hydroelectric = 7.2 MW,Conventional Hydroelectric,"EIA-860, EIA-860M and EIA-923",201607,36.109722,-117.956667
399,Harbor,Los Angeles Department of Water & Power,11208,Electric Utility,Wilmington,Los Angeles,90744,161 N. Island Ave.,natural gas,461,0,461,0,,0,0,0,0,0,,,Natural Gas = 461 MW,Natural Gas Fired Combustion Turbine; Natural Gas Fired Combined Cycle;,"EIA-860, EIA-860M and EIA-923",201607,33.7856,-118.2644
400,Haynes,Los Angeles Department of Water & Power,11208,Electric Utility,Long Beach,Los Angeles,90803,6801 E. 2nd St.,natural gas,1571.8,0,1571.8,0,,0,0,0,0,0,,,Natural Gas = 1571.8 MW,Natural Gas Fired Combined Cycle; Natural Gas Fired Combustion Turbine; Natural Gas Steam Turbine,"EIA-860, EIA-860M and EIA-923",201607,33.764741,-118.09913
401,Middle Gorge,Los Angeles Department of Water & Power,11208,Electric Utility,Bishop,Mono,93514,1501 Gorge Rd.,hydroelectric,37.5,0,0,0,,37.5,0,0,0,0,,,Hydroelectric = 37.5 MW,Conventional Hydroelectric,"EIA-860, EIA-860M and EIA-923",201607,37.51,-118.569167
402,Pleasant Valley Hydro,Los Angeles Department of Water & Power,11208,Electric Utility,Bishop,Inyo,93514,(unnamed road),hydroelectric,2.7,0,0,0,,2.7,0,0,0,0,,,Hydroelectric = 2.7 MW,Conventional Hydroelectric,"EIA-860, EIA-860M and EIA-923",201607,37.41416,-118.523889
403,San Fernando,Los Angeles Department of Water & Power,11208,Electric Utility,San Fernando,Los Angeles,91342,14031 San Fernando Rd.,hydroelectric,6.1,0,0,0,,6.1,0,0,0,0,,,Hydroelectric = 6.1 MW,Conventional Hydroelectric,"EIA-860, EIA-860M and EIA-923",201607,34.260527,-118.385531
404,Scattergood,Los Angeles Department of Water & Power,11208,Electric Utility,Playa Dal Ray,Los Angeles,90293,12700 Vista Del Mar,natural gas,884.2,0,884.2,0,,0,0,0,0,0,,,Natural Gas = 884.2 MW,Natural Gas Fired Combined Cycle; Natural Gas Fired Combustion Turbine; Natural Gas Steam Turbine,"EIA-860, EIA-860M and EIA-923",201607,33.918151,-118.427648
406,Tok,Alaska Power and Telephone Co,219,Electric Utility,Tok,Southeast Fairbanks,99780,Milepost 1314 AK Hwy,petroleum,7.3,0,0,7.3,,0,0,0,0,0,,,Petroleum = 7.3 MW,Petroleum Liquids,"EIA-860, EIA-860M and EIA-923",201607,63.33552,-142.99997
407,Upper Gorge,Los Angeles Department of Water & Power,11208,Electric Utility,Bishop,Mono,93514,1501 Gorge Rd.,hydroelectric,37.5,0,0,0,,37.5,0,0,0,0,,,Hydroelectric = 37.5 MW,Conventional Hydroelectric,"EIA-860, EIA-860M and EIA-923",201607,37.546036,-118.590001
408,Valley (CA),Los Angeles Department of Water & Power,11208,Electric Utility,Sun Valley,Los Angeles,91352,11801 Sheldon St.,natural gas,556,0,556,0,,0,0,0,0,0,,,Natural Gas = 556 MW,Natural Gas Fired Combined Cycle; Natural Gas Fired Combustion Turbine;,"EIA-860, EIA-860M and EIA-923",201607,34.244991,-118.391327
409,Exchequer,Merced Irrigation District,12312,IPP Non-CHP,Snelling,Mariposa,95369,9188 Village Drive,hydroelectric,94.5,0,0,0,,94.5,0,0,0,0,,,Hydroelectric = 94.5 MW,Conventional Hydroelectric,"EIA-860, EIA-860M and EIA-923",201607,37.584345,-120.26859
410,McSwain,Merced Irrigation District,12312,IPP Non-CHP,Snelling,Mariposa,95369,7912 Lake McClure Road,hydroelectric,9,0,0,0,,9,0,0,0,0,,,Hydroelectric = 9 MW,Conventional Hydroelectric,"EIA-860, EIA-860M and EIA-923",201607,37.522065,-120.31009
412,Chicago Park,Nevada Irrigation District,13402,IPP Non-CHP,Colfax,Nevada,95713,24199 Lowell Hill Rd,hydroelectric,44,0,0,0,,44,0,0,0,0,,,Hydroelectric = 44 MW,Conventional Hydroelectric,"EIA-860, EIA-860M and EIA-923",201607,39.177903,-120.890856
413,Dutch Flat 2,Nevada Irrigation District,13402,IPP Non-CHP,Dutch Flat,Nevada,95714,Diggins Road,hydroelectric,27.3,0,0,0,,27.3,0,0,0,0,,,Hydroelectric = 27.3 MW,Conventional Hydroelectric,"EIA-860, EIA-860M and EIA-923",201607,39.2184,-120.8352
414,Beardsley,Oakdale&South San Joaquin Irrigation D.,13935,IPP Non-CHP,None,Tuolumne,95364,None,hydroelectric,11,0,0,0,,11,0,0,0,0,,,Hydroelectric = 11 MW,Conventional Hydroelectric,"EIA-860, EIA-860M and EIA-923",201607,38.202569,-120.076983
415,Donnells,Oakdale&South San Joaquin Irrigation D.,13935,IPP Non-CHP,None,Tuolumne,95364,None,hydroelectric,72,0,0,0,,72,0,0,0,0,,,Hydroelectric = 72 MW,Conventional Hydroelectric,"EIA-860, EIA-860M and EIA-923",201607,38.246656,-120.034072
416,Tulloch,Oakdale&South San Joaquin Irrigation D.,13935,IPP Non-CHP,Jamestown,Tuolumne,95370,Tulloch Dam Road,hydroelectric,25.8,0,0,0,,25.8,0,0,0,0,,,Hydroelectric = 25.8 MW,Conventional Hydroelectric,"EIA-860, EIA-860M and EIA-923",201607,37.876111,-120.605
417,Forbestown,South Feather Water and Power Agency,14191,Electric Utility,Forbestown,Butte,95941,Ponderosa Way,hydroelectric,36,0,0,0,,36,0,0,0,0,,,Hydroelectric = 36 MW,Conventional Hydroelectric,"EIA-860, EIA-860M and EIA-923",201607,39.551012,-121.278784
418,Kelly Ridge,South Feather Water and Power Agency,14191,Electric Utility,Oroville,Butte,95965,Oroville Dam Blvd,hydroelectric,9,0,0,0,,9,0,0,0,0,,,Hydroelectric = 9 MW,Conventional Hydroelectric,"EIA-860, EIA-860M and EIA-923",201607,39.531784,-121.491247
419,Woodleaf,South Feather Water and Power Agency,14191,Electric Utility,Forbestown,Butte,95941,Forbestown Dam Road,hydroelectric,59,0,0,0,,59,0,0,0,0,,,Hydroelectric = 59 MW,Conventional Hydroelectric,"EIA-860, EIA-860M and EIA-923",201607,39.553811,-121.204077
420,Broadway (CA),City of Pasadena - (CA),14534,Electric Utility,Pasadena,Los Angeles,91105,85 East State Street,natural gas,71,0,71,0,,0,0,0,0,0,,,Natural Gas = 71 MW,Natural Gas Steam Turbine,"EIA-860, EIA-860M and EIA-923",201607,34.1254,-118.148
421,Craig (AK),Alaska Power and Telephone Co,219,Electric Utility,Craig,Prince of Wales Ketchikan,99921,401 7th Street,petroleum,4.6,0,0,4.6,,0,0,0,0,0,,,Petroleum = 4.6 MW,Petroleum Liquids,"EIA-860, EIA-860M and EIA-923",201607,55.47691,-133.14869
422,Glenarm,City of Pasadena - (CA),14534,Electric Utility,Pasadena,Los Angeles,91105,43 East State Street,natural gas,151.6,0,151.6,0,,0,0,0,0,0,,,Natural Gas = 151.6 MW,Natural Gas Fired Combustion Turbine,"EIA-860, EIA-860M and EIA-923",201607,34.126,-118.1494
423,Hydaburg,Alaska Power and Telephone Co,219,Electric Utility,Prince of Wales,Prince of Wales Ketchikan,99922,105 Hyda Street,petroleum,1,0,0,1,,0,0,0,0,0,,,Petroleum = 1 MW,Petroleum Liquids,"EIA-860, EIA-860M and EIA-923",201607,55.204937,-132.821435
424,French Meadows,Placer County Water Agency,15127,Electric Utility,Foresthill,Placer,95631,NW side of Hell Hole Reservoir,hydroelectric,17,0,0,0,,17,0,0,0,0,,,Hydroelectric = 17 MW,Conventional Hydroelectric,"EIA-860, EIA-860M and EIA-923",201607,39.077971,-120.406069
425,Middle Fork,Placer County Water Agency,15127,Electric Utility,Foresthill,Placer,95631,5000 Mosquito Ridge Rd.,hydroelectric,122,0,0,0,,122,0,0,0,0,,,Hydroelectric = 122 MW,Conventional Hydroelectric,"EIA-860, EIA-860M and EIA-923",201607,39.024801,-120.596383
426,Oxbow (CA),Placer County Water Agency,15127,Electric Utility,Foresthill,Placer,95631,9200 Blacksmith Rd.,hydroelectric,6,0,0,0,,6,0,0,0,0,,,Hydroelectric = 6 MW,Conventional Hydroelectric,"EIA-860, EIA-860M and EIA-923",201607,39.003372,-120.746651
427,Ralston,Placer County Water Agency,15127,Electric Utility,Foresthill,Placer,95631,9600 Blacksmith Flat Rd.,hydroelectric,86.3,0,0,0,,86.3,0,0,0,0,,,Hydroelectric = 86.3 MW,Conventional Hydroelectric,"EIA-860, EIA-860M and EIA-923",201607,39.000999,-120.725053
428,Parker,Merced Irrigation District,12312,IPP Non-CHP,Snelling,Merced,95344,hwy 59 on Merced/Snelling road,hydroelectric,2.7,0,0,0,,2.7,0,0,0,0,,,Hydroelectric = 2.7 MW,Conventional Hydroelectric,"EIA-860, EIA-860M and EIA-923",201607,37.477838,-120.444492
430,Camino,Sacramento Municipal Util Dist,16534,Electric Utility,Camino,El Dorado,95726,Highway 50,hydroelectric,155.9,0,0,0,,155.9,0,0,0,0,,,Hydroelectric = 155.9 MW,Conventional Hydroelectric,"EIA-860, EIA-860M and EIA-923",201607,38.82881,-120.537089
431,Jaybird,Sacramento Municipal Util Dist,16534,Electric Utility,Camino,El Dorado,95725,Highway 50,hydroelectric,156.2,0,0,0,,156.2,0,0,0,0,,,Hydroelectric = 156.2 MW,Conventional Hydroelectric,"EIA-860, EIA-860M and EIA-923",201607,38.83405,-120.53176
432,Loon Lake,Sacramento Municipal Util Dist,16534,Electric Utility,Fresh Pond,El Dorado,95726,Ice House Rd,hydroelectric,74.1,0,0,0,,74.1,0,0,0,0,,,Hydroelectric = 74.1 MW,Conventional Hydroelectric,"EIA-860, EIA-860M and EIA-923",201607,38.982697,-120.324503
433,Robbs Peak,Sacramento Municipal Util Dist,16534,Electric Utility,Fresh Pond,El Dorado,95726,Ice House Rd,hydroelectric,25.5,0,0,0,,25.5,0,0,0,0,,,Hydroelectric = 25.5 MW,Conventional Hydroelectric,"EIA-860, EIA-860M and EIA-923",201607,38.896511,-120.378292
435,White Rock/Slab Creek,Sacramento Municipal Util Dist,16534,Electric Utility,Placerville,El Dorado,95709,Highway 50,hydroelectric,241,0,0,0,,241,0,0,0,0,,,Hydroelectric = 241 MW,Conventional Hydroelectric,"EIA-860, EIA-860M and EIA-923",201607,38.765336,-120.787366
436,Devil Canyon,California Dept. of  Water Resources,3255,Electric Utility,San Bernardino,San Bernardino,92407,6900 Devil Canyon Rd.,hydroelectric,262,0,0,0,,262,0,0,0,0,,,Hydroelectric = 262 MW,Conventional Hydroelectric,"EIA-860, EIA-860M and EIA-923",201607,34.2056,-117.3344
437,Edward C Hyatt,California Dept. of  Water Resources,3255,Electric Utility,Oroville,Butte,95966,460 Glen Dr.,hydroelectric,743.1,0,0,0,,405.9,337.2,0,0,0,,,"Pumped Storage = 337.2 MW,Hydroelectric = 405.9 MW",Hydroelectric Pumped Storage; Conventional Hydroelectric;,"EIA-860, EIA-860M and EIA-923",201607,39.542985,-121.492188
438,Thermalito,California Dept. of  Water Resources,3255,Electric Utility,Oroville,Butte,95966,460 Glen Dr.,pumped storage,115.1,0,0,0,,32.6,82.5,0,0,0,,,"Pumped Storage = 82.5 MW,Hydroelectric = 32.6 MW",Hydroelectric Pumped Storage; Conventional Hydroelectric;,"EIA-860, EIA-860M and EIA-923",201607,39.514893,-121.630077
439,Don Pedro,Turlock Irrigation District,19281,Electric Utility,La Grange,Tuolumne,95329,21 Bonds Flat Road,hydroelectric,203.2,0,0,0,,203.2,0,0,0,0,,,Hydroelectric = 203.2 MW,Conventional Hydroelectric,"EIA-860, EIA-860M and EIA-923",201607,37.695994,-120.420152
440,La Grange,Turlock Irrigation District,19281,Electric Utility,La Grange,Stanislaus,95329,1249 La Grange Dam Road,hydroelectric,4.3,0,0,0,,4.3,0,0,0,0,,,Hydroelectric = 4.3 MW,Conventional Hydroelectric,"EIA-860, EIA-860M and EIA-923",201607,37.6697,-120.4436
441,Folsom,U S Bureau of Reclamation,2518,Electric Utility,Folsom,Sacramento,95630,N/A,hydroelectric,215.1,0,0,0,,215.1,0,0,0,0,,,Hydroelectric = 215.1 MW,Conventional Hydroelectric,"EIA-860, EIA-860M and EIA-923",201607,38.70675,-121.158443
442,Judge F Carr,U S Bureau of Reclamation,2518,Electric Utility,French Gulch,Shasta,96003,N/A,hydroelectric,177.4,0,0,0,,177.4,0,0,0,0,,,Hydroelectric = 177.4 MW,Conventional Hydroelectric,"EIA-860, EIA-860M and EIA-923",201607,40.646934,-122.626973
443,Keswick,U S Bureau of Reclamation,2518,Electric Utility,Redding,Shasta,96003,N/A,hydroelectric,117,0,0,0,,117,0,0,0,0,,,Hydroelectric = 117 MW,Conventional Hydroelectric,"EIA-860, EIA-860M and EIA-923",201607,40.611858,-122.446441
444,Nimbus,U S Bureau of Reclamation,2518,Electric Utility,Folsom,Sacramento,95630,N/A,hydroelectric,16.6,0,0,0,,16.6,0,0,0,0,,,Hydroelectric = 16.6 MW,Conventional Hydroelectric,"EIA-860, EIA-860M and EIA-923",201607,38.63735,-121.220198
445,Shasta,U S Bureau of Reclamation,2518,Electric Utility,Redding,Shasta,96003,n/a,hydroelectric,714,0,0,0,,714,0,0,0,0,,,Hydroelectric = 714 MW,Conventional Hydroelectric,"EIA-860, EIA-860M and EIA-923",201607,40.717455,-122.422274
446,ONeill,U S Bureau of Reclamation,2518,Electric Utility,Los Banos,Merced,95376,n/a,pumped storage,14.4,0,0,0,,0,14.4,0,0,0,,,Pumped Storage = 14.4 MW,Hydroelectric Pumped Storage,"EIA-860, EIA-860M and EIA-923",201607,37.098671,-121.047718
447,Parker Dam,U S Bureau of Reclamation,2518,Electric Utility,Parker,San Bernardino,92267,n/a,hydroelectric,120,0,0,0,,120,0,0,0,0,,,Hydroelectric = 120 MW,Conventional Hydroelectric,"EIA-860, EIA-860M and EIA-923",201607,34.295334,-114.140222
448,W R Gianelli,California Dept. of  Water Resources,3255,Electric Utility,Gustine,Merced,95322,31770 Gonzaga Rd.,pumped storage,401,0,0,0,,0,401,0,0,0,,,Pumped Storage = 401 MW,Hydroelectric Pumped Storage,"EIA-860, EIA-860M and EIA-923",201607,37.0692,-121.0772
450,Spring Creek,U S Bureau of Reclamation,2518,Electric Utility,Redding,Shasta,96003,n/a,hydroelectric,180,0,0,0,,180,0,0,0,0,,,Hydroelectric = 180 MW,Conventional Hydroelectric,"EIA-860, EIA-860M and EIA-923",201607,40.628115,-122.467509
451,Trinity,U S Bureau of Reclamation,2518,Electric Utility,Weaverville,Trinity,96003,n/a,hydroelectric,140,0,0,0,,140,0,0,0,0,,,Hydroelectric = 140 MW,Conventional Hydroelectric,"EIA-860, EIA-860M and EIA-923",201607,40.797296,-122.762553
454,Colgate,Yuba County Water Agency,21140,Electric Utility,Dobbins,Yuba,95935,12700 Lake Francis Rd,hydroelectric,315,0,0,0,,315,0,0,0,0,,,Hydroelectric = 315 MW,Conventional Hydroelectric,"EIA-860, EIA-860M and EIA-923",201607,39.330833,-121.191666
455,Narrows 2,Yuba County Water Agency,21140,Electric Utility,Browns Valley,Yuba,95918,8764 Scott Forbes Road,hydroelectric,46.7,0,0,0,,46.7,0,0,0,0,,,Hydroelectric = 46.7 MW,Conventional Hydroelectric,"EIA-860, EIA-860M and EIA-923",201607,39.238996,-121.270409
457,Bear Valley,City of Escondido - (CA),5969,Electric Utility,Escondido,San Diego,92027,25130 Lake Wohlford Rd.,hydroelectric,1.4,0,0,0,,1.4,0,0,0,0,,,Hydroelectric = 1.4 MW,Conventional Hydroelectric,"EIA-860, EIA-860M and EIA-923",201607,33.166246,-117.016566
460,Pueblo,Black Hills/Colorado Elec.Util,56146,Electric Utility,Pueblo,Pueblo,81003,105 S. Victoria,petroleum,10,0,0,10,,0,0,0,0,0,,,Petroleum = 10 MW,Petroleum Liquids,"EIA-860, EIA-860M and EIA-923",201607,38.2667,-104.6144
464,Alamosa,Public Service Co of Colorado,15466,Electric Utility,Alamosa,Alamosa,81101,8073 County Road 8,natural gas,27,0,27,0,,0,0,0,0,0,,,Natural Gas = 27 MW,Natural Gas Fired Combustion Turbine,"EIA-860, EIA-860M and EIA-923",201607,37.4594,-105.8947
466,Boulder Canyon Hydro,Boulder City of,1994,IPP Non-CHP,Boulder,Boulder,80306,37788 Boulder Canyon Drive,hydroelectric,5,0,0,0,,5,0,0,0,0,,,Hydroelectric = 5 MW,Conventional Hydroelectric,"EIA-860, EIA-860M and EIA-923",201607,40.004725,-105.332495
467,Cabin Creek,Public Service Co of Colorado,15466,Electric Utility,Georgetown,Clear Creek,80444,5167 Guanella Pass Road,pumped storage,324,0,0,0,,0,324,0,0,0,,,Pumped Storage = 324 MW,Hydroelectric Pumped Storage,"EIA-860, EIA-860M and EIA-923",201607,39.6551,-105.7088
469,Cherokee,Public Service Co of Colorado,15466,Electric Utility,denver,Adams,80216,6198 Franklin St,natural gas,928,352,576,0,,0,0,0,0,0,,,"Coal = 352 MW, Natural Gas = 576 MW",Conventional Steam Coal; Natural Gas Fired Combined Cycle;,"EIA-860, EIA-860M and EIA-923",201607,39.807275,-104.964548
470,Comanche (CO),Public Service Co of Colorado,15466,Electric Utility,Pueblo,Pueblo,81006,2005 Lime Rd.,coal,1410,1410,0,0,,0,0,0,0,0,,,Coal = 1410 MW,Conventional Steam Coal,"EIA-860, EIA-860M and EIA-923",201607,38.2081,-104.5747
471,Fruita,Public Service Co of Colorado,15466,Electric Utility,Grand Junction,Mesa,81521,917 Colorado State Highway 340,natural gas,14,0,14,0,,0,0,0,0,0,,,Natural Gas = 14 MW,Natural Gas Fired Combustion Turbine,"EIA-860, EIA-860M and EIA-923",201607,39.1364,-108.7347
472,Georgetown Hydro,Public Service Co of Colorado,15466,Electric Utility,Georgetown,Clear Creek,80444,6th and Griffith St.,hydroelectric,1.6,0,0,0,,1.6,0,0,0,0,,,Hydroelectric = 1.6 MW,Conventional Hydroelectric,"EIA-860, EIA-860M and EIA-923",201607,39.6919,-105.6978
473,Grand Valley Project Power Plant,Orchard Mesa Irrigation District,57301,Electric Utility,Palisade,Mesa,81526,668 38 Road,hydroelectric,3.1,0,0,0,,3.1,0,0,0,0,,,Hydroelectric = 3.1 MW,Conventional Hydroelectric,"EIA-860, EIA-860M and EIA-923",201607,39.101667,-108.345556
474,Salida,Public Service Co of Colorado,15466,Electric Utility,Salida,Chaffee,81201,16880 County Road 220,hydroelectric,1.4,0,0,0,,1.4,0,0,0,0,,,Hydroelectric = 1.4 MW,Conventional Hydroelectric,"EIA-860, EIA-860M and EIA-923",201607,38.53419,-106.182003
476,Shoshone (CO),Public Service Co of Colorado,15466,Electric Utility,Glenwood Springs,Garfield,81601,60111 Highway 6 & 40,hydroelectric,15,0,0,0,,15,0,0,0,0,,,Hydroelectric = 15 MW,Conventional Hydroelectric,"EIA-860, EIA-860M and EIA-923",201607,39.57013,-107.226876
477,Valmont,Public Service Co of Colorado,15466,Electric Utility,Boulder,Boulder,80302,1800 N. 63rd St.,coal,227,184,43,0,,0,0,0,0,0,,,"Coal = 184 MW, Natural Gas = 43 MW",Conventional Steam Coal; Natural Gas Fired Combustion Turbine;,"EIA-860, EIA-860M and EIA-923",201607,40.0195,-105.202
479,Temescal,Metropolitan Water District of S CA,12397,Electric Utility,Corona,Riverside,91720,Eagle Canyon Rd and Cajalco,hydroelectric,2.8,0,0,0,,2.8,0,0,0,0,,,Hydroelectric = 2.8 MW,Conventional Hydroelectric,"EIA-860, EIA-860M and EIA-923",201607,33.8343,-117.4971
480,Corona,Metropolitan Water District of S CA,12397,Electric Utility,Corona,Riverside,91720,Adobe Avenue,hydroelectric,2.8,0,0,0,,2.8,0,0,0,0,,,Hydroelectric = 2.8 MW,Conventional Hydroelectric,"EIA-860, EIA-860M and EIA-923",201607,33.85895,-117.6106
481,Perris,Metropolitan Water District of S CA,12397,Electric Utility,Perris,Riverside,92555,17801 Lake Perris Ave.,hydroelectric,7.9,0,0,0,,7.9,0,0,0,0,,,Hydroelectric = 7.9 MW,Conventional Hydroelectric,"EIA-860, EIA-860M and EIA-923",201607,33.8361,-117.1831
482,Rio Hondo,Metropolitan Water District of S CA,12397,Electric Utility,South Gate,LOS ANGELES,90280,9840 Milla Way,hydroelectric,1.9,0,0,0,,1.9,0,0,0,0,,,Hydroelectric = 1.9 MW,Conventional Hydroelectric,"EIA-860, EIA-860M and EIA-923",201607,34.004722,-118.09917
483,Coyote Creek,Metropolitan Water District of S CA,12397,Electric Utility,La Habra,Orange,90631,627 S. Monte Vista,hydroelectric,3.1,0,0,0,,3.1,0,0,0,0,,,Hydroelectric = 3.1 MW,Conventional Hydroelectric,"EIA-860, EIA-860M and EIA-923",201607,33.92493,-117.95517
484,Red Mountain,Metropolitan Water District of S CA,12397,Electric Utility,Fallbrook,San Diego,92028,3500 Mission Road,hydroelectric,5.9,0,0,0,,5.9,0,0,0,0,,,Hydroelectric = 5.9 MW,Conventional Hydroelectric,"EIA-860, EIA-860M and EIA-923",201607,33.3944,-117.1889
487,Valley View,Metropolitan Water District of S CA,12397,Electric Utility,Yorba Linda,Orange,92886,4226 Valley View Ave.,hydroelectric,4.1,0,0,0,,4.1,0,0,0,0,,,Hydroelectric = 4.1 MW,Conventional Hydroelectric,"EIA-860, EIA-860M and EIA-923",201607,33.9001,-117.82905
489,Upper Dawson,Turlock Irrigation District,19281,Electric Utility,La Grange,Tuolumne,95329,707 La Grange Dam Road,hydroelectric,5.5,0,0,0,,5.5,0,0,0,0,,,Hydroelectric = 5.5 MW,Conventional Hydroelectric,"EIA-860, EIA-860M and EIA-923",201607,37.6508,-120.4706
491,Center,City of Center - (CO),3227,Electric Utility,Center,SAGUACHE,81125,294 S Worth Street,petroleum,1.5,0,0,1.5,,0,0,0,0,0,,,Petroleum = 1.5 MW,Petroleum Liquids,"EIA-860, EIA-860M and EIA-923",201607,37.753606,-106.10467
492,Martin Drake,City of Colorado Springs - (CO),3989,Electric Utility,Colorado Springs,El Paso,80903,700 S Conejos St,coal,254,254,0,0,,0,0,0,0,0,,,Coal = 254 MW,Conventional Steam Coal,"EIA-860, EIA-860M and EIA-923",201607,38.824444,-104.833333
493,George Birdsall,City of Colorado Springs - (CO),3989,Electric Utility,Colorado Springs,El Paso,80907,213 Nichols Blvd.,natural gas,55,0,55,0,,0,0,0,0,0,,,Natural Gas = 55 MW,Natural Gas Steam Turbine,"EIA-860, EIA-860M and EIA-923",201607,38.881389,-104.816944
494,Manitou Springs,City of Colorado Springs - (CO),3989,Electric Utility,Manitou Spring,El Paso,80829,540 Ruxton Avenue,hydroelectric,5.6,0,0,0,,5.6,0,0,0,0,,,Hydroelectric = 5.6 MW,Conventional Hydroelectric,"EIA-860, EIA-860M and EIA-923",201607,38.855556,-104.933056
495,Ruxton Park,City of Colorado Springs - (CO),3989,Electric Utility,Manitou Spring,El Paso,80829,100 Knull Drive,hydroelectric,1,0,0,0,,1,0,0,0,0,,,Hydroelectric = 1 MW,Conventional Hydroelectric,"EIA-860, EIA-860M and EIA-923",201607,38.841354,-104.973802
502,Holly,Town of Holly - (CO),8751,Electric Utility,Holly,Prowers,81047,Tony Garcia Drive PO Box 458,petroleum,2.7,0,0,2.7,,0,0,0,0,0,,,Petroleum = 2.7 MW,Petroleum Liquids,"EIA-860, EIA-860M and EIA-923",201607,38.032717,-102.073659
504,Julesburg,City of Julesburg - (CO),9928,Electric Utility,Julesburg,Sedgwick,80737,222 East First St,petroleum,2.2,0,0,2.2,,0,0,0,0,0,,,Petroleum = 2.2 MW,Petroleum Liquids,"EIA-860, EIA-860M and EIA-923",201607,40.9505,-102.2795
505,Boysen,U S Bureau of Reclamation,2518,Electric Utility,Thermopolis,Fremont,82649,n/a,hydroelectric,17.2,0,0,0,,17.2,0,0,0,0,,,Hydroelectric = 17.2 MW,Conventional Hydroelectric,"EIA-860, EIA-860M and EIA-923",201607,43.417872,-108.177545
506,La Junta,City of La Junta - (CO),10536,Electric Utility,La Junta,Otero,81050,1st & Belleview,petroleum,14.4,0,0,14.4,,0,0,0,0,0,,,Petroleum = 14.4 MW,Petroleum Liquids,"EIA-860, EIA-860M and EIA-923",201607,37.9876,-103.5468
507,Las Animas,City of Las Animas - (CO),10730,Electric Utility,Las Animas,BENT,81054,733 Moore Ave,petroleum,5.1,0,0,5.1,,0,0,0,0,0,,,Petroleum = 5.1 MW,Petroleum Liquids,"EIA-860, EIA-860M and EIA-923",201607,38.0647,-103.2159
508,Lamar Plant,City of Lamar - (CO),10633,Electric Utility,Lamar,Prowers,81052,100 North Second Street,coal,51.7,40,4.2,2,,0,0,0,0,5.5,,,"Coal = 40 MW, Natural Gas = 4.2 MW, Petroleum = 2 MW, Wind = 5.5 MW",Conventional Steam Coal; Natural Gas Fired Combustion Turbine; Petroleum Liquids; Onshore Wind Turbine;,"EIA-860, EIA-860M and EIA-923",201607,38.033327,-102.537915
510,Sonoma California Geothermal,Geysers Power Co LLC,7160,IPP Non-CHP,Middletown,Lake,95461,10350 Socrates Mine Road,geothermal,50,0,0,0,,0,0,0,0,0,50,,Geothermal = 50MW,Geothermal,"EIA-860, EIA-860M and EIA-923",201607,38.7903,-122.7559
511,Trinidad (CO),City of Trinidad - (CO),19204,Electric Utility,Trinidad,LAS ANIMAS,81082,1925 E Main St,petroleum,13,3.8,3.8,5.4,,0,0,0,0,0,,,"Coal = 3.8 MW, Natural Gas = 3.8 MW, Petroleum = 5.4 MW",Conventional Steam Coal; Natural Gas Internal Combustion Engine; Petroleum Liquids,"EIA-860, EIA-860M and EIA-923",201607,37.178979,-104.487492
512,Blue Mesa,U S Bureau of Reclamation,2518,Electric Utility,Gunnison,Gunnison,81401,n/a,hydroelectric,86.4,0,0,0,,86.4,0,0,0,0,,,Hydroelectric = 86.4 MW,Conventional Hydroelectric,"EIA-860, EIA-860M and EIA-923",201607,38.453191,-107.337483
513,Estes,U S Bureau of Reclamation,2518,Electric Utility,Estes Park,Larimer,80517,n/a,hydroelectric,51.6,0,0,0,,51.6,0,0,0,0,,,Hydroelectric = 51.6 MW,Conventional Hydroelectric,"EIA-860, EIA-860M and EIA-923",201607,40.376771,-105.509665
514,Morrow Point,U S Bureau of Reclamation,2518,Electric Utility,Montrose,Montrose,81401,n/a,hydroelectric,173.2,0,0,0,,173.2,0,0,0,0,,,Hydroelectric = 173.2 MW,Conventional Hydroelectric,"EIA-860, EIA-860M and EIA-923",201607,38.451753,-107.539299
515,Big Thompson,U S Bureau of Reclamation,2518,Electric Utility,Loveland,Larimer,80538,n/a,hydroelectric,5.2,0,0,0,,5.2,0,0,0,0,,,Hydroelectric = 5.2 MW,Conventional Hydroelectric,"EIA-860, EIA-860M and EIA-923",201607,40.421031,-105.223804
516,Green Mountain,U S Bureau of Reclamation,2518,Electric Utility,Kremmling,Summit,80459,n/a,hydroelectric,26,0,0,0,,26,0,0,0,0,,,Hydroelectric = 26 MW,Conventional Hydroelectric,"EIA-860, EIA-860M and EIA-923",201607,39.878805,-106.332725
517,Marys Lake,U S Bureau of Reclamation,2518,Electric Utility,Estes Park,Larimer,80517,n/a,hydroelectric,9.3,0,0,0,,9.3,0,0,0,0,,,Hydroelectric = 9.3 MW,Conventional Hydroelectric,"EIA-860, EIA-860M and EIA-923",201607,40.34408,-105.534308
518,Flatiron,U S Bureau of Reclamation,2518,Electric Utility,Loveland,Larimer,80539,n/a,hydroelectric,94.5,0,0,0,,86,8.5,0,0,0,,,"Pumped Storage = 8.5 MW,Hydroelectric = 86 MW",Hydroelectric Pumped Storage; Conventional Hydroelectric;,"EIA-860, EIA-860M and EIA-923",201607,40.364996,-105.236032
519,Pole Hill,U S Bureau of Reclamation,2518,Electric Utility,Loveland,Larimer,80537,n/a,hydroelectric,38.2,0,0,0,,38.2,0,0,0,0,,,Hydroelectric = 38.2 MW,Conventional Hydroelectric,"EIA-860, EIA-860M and EIA-923",201607,40.365056,-105.325074
520,Lower Molina,U S Bureau of Reclamation,2518,Electric Utility,Molina,Mesa,81401,n/a,hydroelectric,5.6,0,0,0,,5.6,0,0,0,0,,,Hydroelectric = 5.6 MW,Conventional Hydroelectric,"EIA-860, EIA-860M and EIA-923",201607,39.19366,-108.044088
521,Upper Molina,U S Bureau of Reclamation,2518,Electric Utility,Molina,Mesa,81401,n/a,hydroelectric,9.9,0,0,0,,9.9,0,0,0,0,,,Hydroelectric = 9.9 MW,Conventional Hydroelectric,"EIA-860, EIA-860M and EIA-923",201607,39.143808,-108.004777
525,Hayden,Public Service Co of Colorado,15466,Electric Utility,Hayden,Routt,81639,13125 U.S. Highway 40,coal,446,446,0,0,,0,0,0,0,0,,,Coal = 446 MW,Conventional Steam Coal,"EIA-860, EIA-860M and EIA-923",201607,40.4856,-107.185
527,Nucla,"Tri-State G & T Assn, Inc",30151,Electric Utility,Nucla,Montrose,81424,30739 DD 30 Road,coal,100,100,0,0,,0,0,0,0,0,,,Coal = 100 MW,Conventional Steam Coal,"EIA-860, EIA-860M and EIA-923",201607,38.2383,-108.5069
531,Camp Far West,Sacramento Municipal Util Dist,16534,Electric Utility,Lincoln,Placer,95692,2464 Pacific Ave,hydroelectric,7.2,0,0,0,,7.2,0,0,0,0,,,Hydroelectric = 7.2 MW,Conventional Hydroelectric,"EIA-860, EIA-860M and EIA-923",201607,39.048802,-121.316966
533,McWilliams,PowerSouth Energy Cooperative,189,Electric Utility,Gantt,Covington,36038,28570 US 29 North,natural gas,663,0,663,0,,0,0,0,0,0,,,Natural Gas = 663 MW,Natural Gas Fired Combined Cycle,"EIA-860, EIA-860M and EIA-923",201607,31.400255,-86.476449
534,Jones Fork,Sacramento Municipal Util Dist,16534,Electric Utility,Fresh Pond,El Dorado,95725,Ice House Rd,hydroelectric,10,0,0,0,,10,0,0,0,0,,,Hydroelectric = 10 MW,Conventional Hydroelectric,"EIA-860, EIA-860M and EIA-923",201607,38.850283,-120.381883
535,McClellan (CA),Sacramento Municipal Util Dist,16534,Electric Utility,Sacramento,Sacramento,95652,Watt Ave,natural gas,77,0,77,0,,0,0,0,0,0,,,Natural Gas = 77 MW,Natural Gas Fired Combustion Turbine,"EIA-860, EIA-860M and EIA-923",201607,38.652731,-121.393336
537,Camanche,East Bay Municipal Util Dist,5571,Electric Utility,Clements & Wallace,San Joaquin,95227,McIntire Rd,hydroelectric,10.5,0,0,0,,10.5,0,0,0,0,,,Hydroelectric = 10.5 MW,Conventional Hydroelectric,"EIA-860, EIA-860M and EIA-923",201607,38.2268,-121.0245
539,Rocky River (CT),FirstLight Power Resources Services LLC,54895,IPP Non-CHP,New Milford,Litchfield,6776,200 Kent Road,pumped storage,29.4,0,0,0,,0,29.4,0,0,0,,,Pumped Storage = 29.4 MW,Hydroelectric Pumped Storage,"EIA-860, EIA-860M and EIA-923",201607,41.5826,-73.4349
540,Branford,Connecticut Jet Power LLC,22379,IPP Non-CHP,Branford,New Haven,6450,Route 1,petroleum,17.4,0,0,17.4,,0,0,0,0,0,,,Petroleum = 17.4 MW,Petroleum Liquids,"EIA-860, EIA-860M and EIA-923",201607,41.2925,-72.7942
541,Bulls Bridge,FirstLight Power Resources Services LLC,54895,IPP Non-CHP,New Milford,Litchfield,6776,781 Kent Road,hydroelectric,8.4,0,0,0,,8.4,0,0,0,0,,,Hydroelectric = 8.4 MW,Conventional Hydroelectric,"EIA-860, EIA-860M and EIA-923",201607,41.659046,-73.491984
542,Cos Cob,Connecticut Jet Power LLC,22379,IPP Non-CHP,Greenwich,Fairfield,6430,Sound Shore Drive,petroleum,95.6,0,0,95.6,,0,0,0,0,0,,,Petroleum = 95.6 MW,Petroleum Liquids,"EIA-860, EIA-860M and EIA-923",201607,41.0289,-73.5989
544,Devon Station,Devon Power LLC,22350,IPP Non-CHP,Milford,New Haven,6460,734 Naugatuck Avenue,petroleum,132.5,0,0,132.5,,0,0,0,0,0,,,Petroleum = 132.5 MW,Petroleum Liquids,"EIA-860, EIA-860M and EIA-923",201607,41.209797,-73.108976
546,Montville Station,NRG Montville Operations Inc,22380,IPP Non-CHP,Uncasvlle,New London,6382,74 Lathrop Road,petroleum,496.4,0,0,496.4,,0,0,0,0,0,,,Petroleum = 496.4 MW,Petroleum Liquids,"EIA-860, EIA-860M and EIA-923",201607,41.4281,-72.1019
547,Northfield Mountain,"FirstLight Power Resources, Inc. - MA",58185,IPP Non-CHP,Northfield,Franklin,1360,99 Millers Falls Road,pumped storage,1168,0,0,0,,0,1168,0,0,0,,,Pumped Storage = 1168 MW,Hydroelectric Pumped Storage,"EIA-860, EIA-860M and EIA-923",201607,42.610683,-72.471643
550,Kettle Falls Generating Station,Avista Corp,20169,Electric Utility,Kettle Falls,Stevens,99141,1151 Hyw. 395 N.,biomass,56.2,0,6.2,0,50,0,0,0,0,0,,,"Biomass = 50 MW, Natural Gas = 6.2 MW",Wood/Wood Waste Biomass; Natural Gas Fired Combustion Turbine;,"EIA-860, EIA-860M and EIA-923",201607,48.620336,-118.111059
551,Scotland Dam,FirstLight Power Resources Services LLC,54895,IPP Non-CHP,Windham,Windham,6280,695 Jerusalem Road,hydroelectric,1.7,0,0,0,,1.7,0,0,0,0,,,Hydroelectric = 1.7 MW,Conventional Hydroelectric,"EIA-860, EIA-860M and EIA-923",201607,41.6651,-72.1221
552,Shepaug,FirstLight Power Resources Services LLC,54895,IPP Non-CHP,Southbury,New Haven,6488,2225 River Road,hydroelectric,41.5,0,0,0,,41.5,0,0,0,0,,,Hydroelectric = 41.5 MW,Conventional Hydroelectric,"EIA-860, EIA-860M and EIA-923",201607,41.44842,-73.295321
553,Stevenson,FirstLight Power Resources Services LLC,54895,IPP Non-CHP,Monroe,Fairfield,6468,1 Roosevelt Drive,hydroelectric,28.9,0,0,0,,28.9,0,0,0,0,,,Hydroelectric = 28.9 MW,Conventional Hydroelectric,"EIA-860, EIA-860M and EIA-923",201607,41.3833,-73.1714
554,Taftville,FirstLight Power Resources Services LLC,54895,IPP Non-CHP,Taftville,New London,6380,607 Norwich Avenue,hydroelectric,2,0,0,0,,2,0,0,0,0,,,Hydroelectric = 2 MW,Conventional Hydroelectric,"EIA-860, EIA-860M and EIA-923",201607,41.5725,-72.0458
557,Tunnel,FirstLight Power Resources Services LLC,54895,IPP Non-CHP,Preston,New London,6365,72 Roosevelt Drive,petroleum,18.1,0,0,16.5,,1.6,0,0,0,0,,,"Hydroelectric = 1.6 MW, Petroleum = 16.5 MW",Conventional Hydroelectric; Petroleum Liquids;,"EIA-860, EIA-860M and EIA-923",201607,41.555425,-72.041829
559,Rainbow (CT),Farmington River Power Company,6207,Electric Utility,Windsor,HARTFORD,6095,347 Rainbow Road,hydroelectric,8,0,0,0,,8,0,0,0,0,,,Hydroelectric = 8 MW,Conventional Hydroelectric,"EIA-860, EIA-860M and EIA-923",201607,41.915312,-72.693616
560,Falls Village,FirstLight Power Resources Services LLC,54895,IPP Non-CHP,Falls Village,Litchfield,6031,35 Water Street,hydroelectric,9.9,0,0,0,,9.9,0,0,0,0,,,Hydroelectric = 9.9 MW,Conventional Hydroelectric,"EIA-860, EIA-860M and EIA-923",201607,41.957272,-73.369297
561,Franklin Drive,Connecticut Jet Power LLC,22379,IPP Non-CHP,Torrington,Litchfield,6790,Franklin Drive,petroleum,16.1,0,0,16.1,,0,0,0,0,0,,,Petroleum = 16.1 MW,Petroleum Liquids,"EIA-860, EIA-860M and EIA-923",201607,41.798943,-73.116267
562,Middletown,Middletown Power LLC,12490,IPP Non-CHP,Middletown,Middlesex,6457,1866 River Road,petroleum,770.2,0,353,417.2,,0,0,0,0,0,,,"Natural Gas = 353 MW, Petroleum = 417.2 MW",Natural Gas Steam Turbine; Petroleum Liquids;,"EIA-860, EIA-860M and EIA-923",201607,41.554944,-72.579075
563,South Meadow,NAES Corp,4426,IPP Non-CHP,Hartford,Hartford,6162,Reserve Road Gate 40,petroleum,148.4,0,0,148.4,,0,0,0,0,0,,,Petroleum = 148.4 MW,Petroleum Liquids,"EIA-860, EIA-860M and EIA-923",201607,41.7495,-72.6524
564,Stanton Energy Center,Orlando Utilities Comm,14610,Electric Utility,Orlando,Orange,32831,5100 S. Alafaya Trail,coal,1191,896,295,0,,0,0,0,0,0,,,"Coal = 896 MW, Natural Gas = 295 MW",Conventional Steam Coal; Natural Gas Fired Combined Cycle;,"EIA-860, EIA-860M and EIA-923",201607,28.4822,-81.1678
565,Torrington Terminal,Connecticut Jet Power LLC,22379,IPP Non-CHP,Torrington,Litchfield,6790,South Main St,petroleum,17.4,0,0,17.4,,0,0,0,0,0,,,Petroleum = 17.4 MW,Petroleum Liquids,"EIA-860, EIA-860M and EIA-923",201607,41.776109,-73.120886
566,Millstone,Dominion Nuclear Conn Inc,5221,IPP Non-CHP,Waterford,New London,6385,Route 156 Rope Ferry Road,nuclear,2087.8,0,0,0,,0,0,2087.8,0,0,,,Nuclear = 2087.8 MW,Nuclear,"EIA-860, EIA-860M and EIA-923",201607,41.3107,-72.1677
568,Bridgeport Station,PSEG Power Connecticut LLC,15452,IPP Non-CHP,Bridgeport,Fairfield,6604,1 Atlantic Street,coal,400.3,383.4,0,16.9,,0,0,0,0,0,,,"Coal = 383.4 MW, Petroleum = 16.9 MW",Conventional Steam Coal; Petroleum Liquids;,"EIA-860, EIA-860M and EIA-923",201607,41.1706,-73.1844
579,Central Hudson High Falls,Central Hudson Gas & Elec Corp,3249,Electric Utility,High Falls,ULSTER,12440,Route 213,hydroelectric,3.2,0,0,0,,3.2,0,0,0,0,,,Hydroelectric = 3.2 MW,Conventional Hydroelectric,"EIA-860, EIA-860M and EIA-923",201607,41.828814,-74.131877
581,North Main Street,City of Norwich - (CT),13831,Electric Utility,Norwich,New London,6360,125 North Main Street,petroleum,15.3,0,0,15.3,,0,0,0,0,0,,,Petroleum = 15.3 MW,Petroleum Liquids,"EIA-860, EIA-860M and EIA-923",201607,41.52679,-72.064935
583,Tenth Street,City of Norwich - (CT),13831,Electric Utility,Norwich,New London,6360,10th Street,hydroelectric,1,0,0,0,,1,0,0,0,0,,,Hydroelectric = 1 MW,Conventional Hydroelectric,"EIA-860, EIA-860M and EIA-923",201607,41.538955,-72.050936
584,Navajo Dam,City of Farmington - (NM),6204,Electric Utility,Farmington,San Juan,87401,Reservoir Outlet,hydroelectric,30,0,0,0,,30,0,0,0,0,,,Hydroelectric = 30 MW,Conventional Hydroelectric,"EIA-860, EIA-860M and EIA-923",201607,36.8061,-107.6131
585,Drop 1,Imperial Irrigation District,9216,Electric Utility,Gordons Well,Imperial,92250,Interstate 8,hydroelectric,3.8,0,0,0,,3.8,0,0,0,0,,,Hydroelectric = 3.8 MW,Conventional Hydroelectric,"EIA-860, EIA-860M and EIA-923",201607,32.711611,-114.942666
586,East Highline,Imperial Irrigation District,9216,Electric Utility,Holtville,Imperial,92231,2898 Highway 98,hydroelectric,1,0,0,0,,1,0,0,0,0,,,Hydroelectric = 1 MW,Conventional Hydroelectric,"EIA-860, EIA-860M and EIA-923",201607,32.699451,-115.28245
589,J C McNeil,City of Burlington Electric - (VT),2548,Electric Utility,Burlington,Chittenden,5401,111 Intervale Road,biomass,52,0,0,0,52,0,0,0,0,0,,,Biomass = 52 MW,Wood/Wood Waste Biomass,"EIA-860, EIA-860M and EIA-923",201607,44.4917,-73.208056
591,Christiana,Calpine Mid-Atlantic Generation LLC,56609,IPP Non-CHP,Wilmington,New Castle,19801,Christiana Ave & Lobdell St,petroleum,50,0,0,50,,0,0,0,0,0,,,Petroleum = 50 MW,Petroleum Liquids,"EIA-860, EIA-860M and EIA-923",201607,39.7302,-75.5371
592,Delaware City 10,Calpine Mid-Atlantic Generation LLC,56609,IPP Non-CHP,Delaware City,New Castle,19706,Rt 9 & River Road,petroleum,18,0,0,18,,0,0,0,0,0,,,Petroleum = 18 MW,Petroleum Liquids,"EIA-860, EIA-860M and EIA-923",201607,39.600408,-75.626811
593,Edge Moor,Calpine Mid-Atlantic Generation LLC,56609,IPP Non-CHP,Wilmington,New Castle,19809,200 Hay Road,natural gas,725,0,710,15,,0,0,0,0,0,,,"Natural Gas = 710 MW, Petroleum = 15 MW",Natural Gas Steam Turbine; Petroleum Liquids;,"EIA-860, EIA-860M and EIA-923",201607,39.73886,-75.50384
594,Indian River Generating Station,Indian River Operations Inc,9332,IPP Non-CHP,Dagsboro,Sussex,19939,29416 Power Plant Road,coal,426.1,410,0,16.1,,0,0,0,0,0,,,"Coal = 410 MW, Petroleum = 16.1 MW",Conventional Steam Coal; Petroleum Liquids;,"EIA-860, EIA-860M and EIA-923",201607,38.5857,-75.2341
597,West Station (DE),Calpine Mid-Atlantic Generation LLC,56609,IPP Non-CHP,Wilmington,New Castle,19808,Route 41,petroleum,15,0,0,15,,0,0,0,0,0,,,Petroleum = 15 MW,Petroleum Liquids,"EIA-860, EIA-860M and EIA-923",201607,39.7283,-75.6289
599,McKee Run,NAES Corporation - (DE),54899,IPP Non-CHP,Dover,Kent,19904,880 Buttner Place,natural gas,137.4,0,137.4,0,,0,0,0,0,0,,,Natural Gas = 137.4 MW,Natural Gas Steam Turbine,"EIA-860, EIA-860M and EIA-923",201607,39.176222,-75.546628
602,Brandon Shores,Raven Power Holdings LLC,58177,IPP Non-CHP,Baltimore,Anne Arundel,21226,1000 Brandon Shores Rd,coal,1273,1273,0,0,,0,0,0,0,0,,,Coal = 1273 MW,Conventional Steam Coal,"EIA-860, EIA-860M and EIA-923",201607,39.18,-76.5389
607,Fredonia,Puget Sound Energy Inc,15500,Electric Utility,Mt Vernon,Skagit,98233,13085 Ball Road,natural gas,280,0,280,0,,0,0,0,0,0,,,Natural Gas = 280 MW,Natural Gas Fired Combustion Turbine,"EIA-860, EIA-860M and EIA-923",201607,48.4558,-122.4358
609,Cape Canaveral,Florida Power & Light Co,6452,Electric Utility,Cocoa,Brevard,32927,6000 North US Hwy 1,natural gas,1210,0,1210,0,,0,0,0,0,0,,,Natural Gas = 1210 MW,Natural Gas Fired Combined Cycle,"EIA-860, EIA-860M and EIA-923",201607,28.4698,-80.7644
612,Fort Myers,Florida Power & Light Co,6452,Electric Utility,Ft. Myers,Lee,33902,10650 State Rd 80,natural gas,2395,0,1747,648,,0,0,0,0,0,,,"Natural Gas = 1747 MW, Petroleum = 648 MW",Natural Gas Fired Combined Cycle; Natural Gas Fired Combustion Turbine; Petroleum Liquids,"EIA-860, EIA-860M and EIA-923",201607,26.6967,-81.7831
613,Lauderdale,Florida Power & Light Co,6452,Electric Utility,Ft. Lauderdale,Broward,33314,4300 SW 42nd Avenue,natural gas,1724,0,1724,0,,0,0,0,0,0,,,Natural Gas = 1724 MW,Natural Gas Fired Combined Cycle; Natural Gas Fired Combustion Turbine;,"EIA-860, EIA-860M and EIA-923",201607,26.0686,-80.1984
617,Port Everglades,Florida Power & Light Co,6452,Electric Utility,Ft. Lauderdale,Broward,33316,8100 Eisenhower Blvd,natural gas,1680,0,1680,0,,0,0,0,0,0,,,Natural Gas = 1680 MW,Natural Gas Fired Combined Cycle; Natural Gas Fired Combustion Turbine;,"EIA-860, EIA-860M and EIA-923",201607,26.0856,-80.1253
619,Riviera,Florida Power & Light Co,6452,Electric Utility,Riviera Beach,Palm Beach,33404,200-300 Broadway,natural gas,1212,0,1212,0,,0,0,0,0,0,,,Natural Gas = 1212 MW,Natural Gas Fired Combined Cycle,"EIA-860, EIA-860M and EIA-923",201607,26.7653,-80.0525
